City_ID,City,Country,Max Temp,Current Description,Lat,Lng,Hotel Name
1,Ribeira Grande,PT,68.4,mist,38.5167,-28.7,Quinta da Meia Eira
2,Georgetown,MY,80.53,scattered clouds,5.4112,100.3354,Cititel Penang
7,Vaini,TO,73.56,light intensity drizzle,-21.2,-175.2,Keleti Beach Resort
8,Coquimbo,CL,62.33,scattered clouds,-29.9533,-71.3436,Punto de encuentro
11,Mega,ET,61.88,few clouds,4.05,38.3,Amanuel Guest House
13,Faanui,PF,78.73,overcast clouds,-16.4833,-151.75,Bora-Bora Pearl Beach Resort & Spa
15,Inhambane,MZ,70.05,scattered clouds,-23.865,35.3833,Oceano
18,Rikitea,PF,75.74,overcast clouds,-23.1203,-134.9692,People ThankYou
21,Mount Isa,AU,74.97,overcast clouds,-20.7333,139.5,ibis Styles Mt Isa Verona
24,Sabang,ID,77.05,overcast clouds,5.8933,95.3214,Hotel Citra
25,Kaeo,NZ,66.33,overcast clouds,-35.1,173.7833,Bushido Lodge
27,Avarua,CK,78.85,scattered clouds,-21.2078,-159.775,Paradise Inn
28,Hithadhoo,MV,83.21,overcast clouds,-0.6,73.0833,Scoop Guest House
30,Puerto Ayora,EC,80.56,broken clouds,-0.7393,-90.3518,Finch Bay Galapagos Hotel
31,Fortuna,US,66.92,broken clouds,40.5982,-124.1573,Super 8 by Wyndham Fortuna
33,Cabinda,AO,78.91,light rain,-5.55,12.2,Hotel Maiombe
36,Bredasdorp,ZA,60.12,clear sky,-34.5322,20.0403,Bredasdorp Country Manor
37,Saint-Pierre,RE,69.57,broken clouds,-21.3393,55.4781,Lindsey Hôtel
42,Mataura,NZ,60.96,broken clouds,-46.1927,168.8643,Ellie's Villa
43,San Patricio,US,82.49,clear sky,28.017,-97.5169,"Motel 6 Sinton, TX"
48,Copiapo,CL,60.49,clear sky,-27.3667,-70.3333,San Francisco de La Selva
50,Nakatunguru,TZ,75.24,broken clouds,-2.1167,33.0667,New BJ Hotel
53,Embonas,GR,60.93,few clouds,36.2269,27.8564,Hotel Ataviros
54,Campoverde,PE,87.49,broken clouds,-8.4753,-74.8058,Hospedaje Coral's
57,Bougouni,ML,81.43,overcast clouds,11.417,-7.479,Non Stop
58,Cabedelo,BR,79.47,broken clouds,-6.9811,-34.8339,Hotel Pigalle
59,Celestun,MX,81.7,overcast clouds,20.8667,-90.4,Posada Lilia
60,Vila Franca Do Campo,PT,71.2,broken clouds,37.7167,-25.4333,Pestana Bahia Praia
61,Namibe,AO,66.42,broken clouds,-15.1961,12.1522,Hotel Chik Chik Namibe
62,Ewo,CG,71.17,overcast clouds,-0.8725,14.8206,Residence Elonda Ewo
64,Hilo,US,82.13,scattered clouds,19.7297,-155.09,Hilo Hawaiian Hotel
65,Hermanus,ZA,60.91,clear sky,-34.4187,19.2345,Misty Waves Boutique Hotel
67,Cockburn Town,TC,84.16,scattered clouds,21.4612,-71.1419,Osprey Beach Hotel
70,Nouadhibou,MR,76.98,overcast clouds,20.931,-17.0347,El Medina
71,Constitucion,CL,64.92,overcast clouds,-35.3333,-72.4167,Hotel Boutique Las Azucenas
72,Makakilo City,US,82.29,broken clouds,21.3469,-158.0858,Marriott's Ko Olina Beach Club
73,Soller,ES,69.42,overcast clouds,39.7662,2.7152,Hotel Marina & Wellness Spa
77,Flinders,AU,61.81,overcast clouds,-34.5833,150.8552,Shellharbour Resort & Conference Centre
78,Butaritari,KI,83.7,few clouds,3.0707,172.7902,Isles Sunset Lodge
79,Port Alfred,ZA,62.69,overcast clouds,-33.5906,26.891,The Halyards Hotel
80,Santa Rosa,PH,79.11,clear sky,14.3122,121.1114,Erlyn’s Sta Rosa City Home
81,Riyadh,SA,73.54,overcast clouds,24.6877,46.7219,"InterContinental Riyadh, an IHG Hotel"
84,Marzuq,YE,69.6,clear sky,14.4,46.4667,
85,Namatanai,PG,82.18,overcast clouds,-3.6667,152.4333,Seagulls Inn Namatani
87,Adrar,MR,78.57,broken clouds,20.5022,-10.0711,
88,Muisne,EC,80.71,broken clouds,0.6,-80.0333,Quinta Samay
90,Port Blair,IN,81.07,scattered clouds,11.6667,92.75,"Welcomhotel By ITC Hotels, Bay Island, Port Blair"
92,Lusambo,CD,68.95,broken clouds,-4.9667,23.45,
93,Buraydah,SA,79.25,clear sky,26.326,43.975,فندق راحة السلام
95,Cidreira,BR,68.99,broken clouds,-30.1811,-50.2056,Hotel Castelo
96,Pringsewu,ID,75.34,light rain,-5.3582,104.9744,Urban Style by Front One
99,Anloga,GH,82.62,overcast clouds,5.7947,0.8973,Pin Drop Hotel
101,Bonoua,CI,80.22,overcast clouds,5.2741,-3.595,Hotel Bon Samaritian
102,Vung Tau,VN,79.95,overcast clouds,10.346,107.0843,Green hotel
104,Pisco,PE,69.85,clear sky,-13.7,-76.2167,Hotel San Isidro Oficial
105,Grants Pass,US,67.59,fog,42.439,-123.3284,La Quinta Inn & Suites by Wyndham Grants Pass
110,Vao,NC,70.54,broken clouds,-22.6667,167.4833,Hotel Kou-Bugny
111,Cape Town,ZA,65.08,few clouds,-33.9258,18.4232,Southern Sun Waterfront Cape Town
112,Rafai,CF,69.06,overcast clouds,4.95,23.9167,
114,Itarema,BR,80.33,scattered clouds,-2.9248,-39.9167,"Sea Lounge! Bar, Club & Restaurant"
115,Mahebourg,MU,72.25,broken clouds,-20.4081,57.7,Shandrani Beachcomber Resort & Spa
123,Kapaa,US,80.19,clear sky,22.0752,-159.319,Sheraton Kauai Coconut Beach Resort
127,Senador Jose Porfirio,BR,84.27,broken clouds,-2.5908,-51.9542,Pousada Novo Horizonte
128,Bathsheba,BB,84.81,few clouds,13.2167,-59.5167,Atlantis Hotel
129,Neuquen,AR,87.69,clear sky,-38.9516,-68.0591,Hotel del Comahue
131,Kloulklubed,PW,84.07,light rain,7.0419,134.2556,Storyboard Beach Resort
134,Qeshm,IR,76.89,clear sky,26.9581,56.2719,Qeshm Kavan Hotel
135,Diego De Almagro,CL,79.68,clear sky,-26.3667,-70.05,hotel luna del desierto
136,Maine-Soroa,NE,86.52,few clouds,13.2114,12.0241,Complexe
137,Harper,LR,77.31,overcast clouds,4.375,-7.7169,Screensaver
140,San Cristobal,VE,78.98,overcast clouds,7.7669,-72.225,Posada Villaven C.A.
141,Port Moresby,PG,74.62,broken clouds,-9.4431,147.1797,Lamana Hotel (Port Moresby)
143,Bobon,PH,78.85,scattered clouds,12.5246,124.5636,Fairways
144,Eyl,SO,77.13,scattered clouds,7.9803,49.8164,Amiin Hotel
146,Thinadhoo,MV,83.05,overcast clouds,0.5333,72.9333,
148,Boca Do Acre,BR,87.73,broken clouds,-8.7522,-67.3978,Hotel Sao Pedro
150,Hualmay,PE,67.91,broken clouds,-11.0964,-77.6139,Hotel Villa Kitzia Huacho
151,Noumea,NC,75.0,scattered clouds,-22.2763,166.4572,Hôtel Le Lagon
153,Port Lavaca,US,76.3,clear sky,28.615,-96.6261,Holiday Inn Express & Suites Port Lavaca
155,Iralaya,HN,80.69,overcast clouds,15.0,-83.2333,Iglesia morava renovada
158,Lompoc,US,87.1,few clouds,34.6391,-120.4579,"Holiday Inn Express Lompoc, an IHG Hotel"
159,Alofi,NU,80.49,overcast clouds,-19.0595,-169.9187,Taloa Heights
160,Half Moon Bay,US,81.14,scattered clouds,37.4636,-122.4286,"The Ritz-Carlton, Half Moon Bay"
161,Rocha,UY,69.06,clear sky,-34.4833,-54.3333,Beleza Pura B&B
162,Padang,ID,77.61,overcast clouds,-0.9492,100.3543,Mercure Padang
163,Gorakhpur,IN,67.19,clear sky,29.45,75.6833,Baba Gourakhnath Dharamsala
164,Cap Malheureux,MU,72.46,light rain,-19.9842,57.6142,Pereybere Hotel & Spa
165,Tura,IN,65.07,scattered clouds,25.5198,90.2201,Hotel RIKMAN Continental
166,Madimba,TZ,74.98,scattered clouds,-10.4,40.3333,
167,Sindou,BF,76.69,light rain,10.6667,-5.1667,LERABA HOTEL
168,Chuy,UY,68.23,clear sky,-33.6971,-53.4616,Nuevo Hotel Plaza
169,Carnarvon,AU,64.47,clear sky,-24.8667,113.6333,Hospitality Carnarvon
173,Ambon,ID,75.34,scattered clouds,-3.6954,128.1814,Swiss-Belhotel Ambon
174,Dromolaxia,CY,66.07,clear sky,34.8761,33.586,Sea N Lake View Hotel Apartments
175,Turayf,SA,64.65,scattered clouds,31.6725,38.6637,Turaif
176,Craig,US,61.39,clear sky,40.5153,-107.5464,"Candlewood Suites Craig-Northwest, an IHG Hotel"
177,Porbandar,IN,78.26,overcast clouds,21.6422,69.6093,Lords Inn Porbandar
178,Saint-Philippe,RE,69.48,scattered clouds,-21.3585,55.7679,"Chambres d'hôte ""La Trinité"""
179,Atambua,ID,75.4,broken clouds,-9.1061,124.8925,Pastori 1 Jemaat Polycarpus
180,East London,ZA,64.76,light rain,-33.0153,27.9116,Tu Casa
181,Tucurui,BR,80.55,overcast clouds,-3.7661,-49.6725,BBB Rooms Centro Tucurui PA
188,Vilhena,BR,86.22,thunderstorm,-12.7406,-60.1458,Hotel Mirage
189,Sabha,LY,69.17,scattered clouds,27.0377,14.4283,Foundation Taaj Asala for Historical Research and Archeology
191,Saldanha,ZA,62.65,clear sky,-33.0117,17.9442,Blue Bay Lodge
192,Funtua,NG,73.76,broken clouds,11.5233,7.3081,Sani Jikan Mallam Hotel
194,Glendive,US,73.18,few clouds,47.1053,-104.7125,Baymont by Wyndham Glendive
195,Faya,SA,61.32,overcast clouds,18.3851,42.4509,املاك خالد الشعشوع
196,Curumani,CO,76.78,overcast clouds,9.1999,-73.5427,Hotel Mayumir
197,Barranca,PE,66.34,scattered clouds,-10.75,-77.7667,El Olivar Hospedaje
198,Trairi,BR,80.19,overcast clouds,-3.2778,-39.2689,janelas do mar
202,Waingapu,ID,79.93,overcast clouds,-9.6567,120.2641,Pondok Wisata Elim
204,Vanimo,PG,77.9,overcast clouds,-2.6741,141.3028,Vahmoneh Lodge Vanimo
205,Malakal,SS,77.16,broken clouds,9.5334,31.6605,Nile Palace Hotel
206,Yulara,AU,71.44,scattered clouds,-25.2406,130.9889,Desert Gardens Hotel - Ayers Rock Resort
208,Bowen,AU,71.82,clear sky,-20.0167,148.2333,Castle Motor Lodge Motel
217,Manuk Mangkaw,PH,83.01,light rain,4.8,119.85,
219,Abu Kamal,SY,68.95,broken clouds,34.4506,40.9171,محطة التلفاز
220,Kahului,US,81.66,broken clouds,20.8947,-156.47,Maui Seaside Hotel
221,Aracaju,BR,78.75,clear sky,-10.9111,-37.0717,HOTEL FÊNIX
222,Sao Pedro,BR,75.49,scattered clouds,-22.5486,-47.9139,Hotel Fazenda Samambaia
223,Amahai,ID,77.88,overcast clouds,-3.3333,128.9167,HOTEL ISABELA
224,Acapulco,MX,84.52,few clouds,16.8634,-99.8901,HS Hotsson Smart Acapulco
225,Quelimane,MZ,73.35,clear sky,-17.8786,36.8883,Hotel Flamingo
226,Itaparica,BR,78.73,clear sky,-12.8883,-38.6786,Pousada Nel Blu
227,Castro,BR,66.24,broken clouds,-24.7911,-50.0119,CHACARA BAILLY
229,Bengkulu,ID,75.36,overcast clouds,-3.8004,102.2655,Grage Hotel Bengkulu
234,Nioro,GM,80.73,overcast clouds,13.35,-15.75,
235,Buala,SB,83.01,light rain,-8.145,159.5921,Maringe Lagoon Lodge
236,Laguna,US,80.44,clear sky,38.421,-121.4238,"Holiday Inn Express & Suites Elk Grove Central - Hwy 99, an IHG Hotel"
237,Morant Bay,JM,87.42,scattered clouds,17.8815,-76.4093,Whispering Bamboo Cove Resort
241,Necochea,AR,89.04,broken clouds,-38.5473,-58.7368,dyd -mar Hotel
242,Dakar,SN,83.28,overcast clouds,14.6937,-17.4441,Redface Studios Meublés
244,Camacha,PT,69.22,few clouds,33.0833,-16.3333,Hotel Porto Santo & Spa
245,Sachin,IN,72.75,overcast clouds,21.0833,72.8833,Hotel Ashish
247,Atuona,PF,77.88,few clouds,-9.8,-139.0333,Villa Enata
248,Sur,OM,77.81,clear sky,22.5667,59.5289,Sur Plaza Hotel
249,Sorong,ID,78.01,overcast clouds,-0.8833,131.25,waigo splash hotel
250,Mar Del Plata,AR,68.02,clear sky,-38.0023,-57.5575,Gran Hotel Mar del Plata
252,Bako,ET,64.96,broken clouds,5.7833,36.5667,Goh Hotel
253,Nhulunbuy,AU,74.01,broken clouds,-12.2333,136.7667,East Arnhem Real Estate
254,Bardiyah,LY,71.55,overcast clouds,31.7561,25.0865,بورتو بردية
259,Port Hedland,AU,73.45,broken clouds,-20.3167,118.5667,The Esplanade Hotel
261,Burhar,IN,61.21,scattered clouds,23.2167,81.5333,REPL Camp
262,Cavalcante,BR,75.97,overcast clouds,-13.7975,-47.4583,Pousada Vila dos Ipês
266,Ponta Do Sol,PT,72.23,broken clouds,32.6667,-17.1,Hotel do Campo
268,Ixtapa,MX,86.23,scattered clouds,20.7,-105.2,Hotel Plaza Providencia
269,Mogadishu,SO,79.34,few clouds,2.0371,45.3438,Hotel Juba
271,Cagliliog,PH,77.86,clear sky,13.9016,123.2913,Cagliliog Labog Beach
274,Sokoto,NG,85.3,broken clouds,13.0609,5.239,Shukura Coral Hotel
275,Kattivakkam,IN,77.09,overcast clouds,13.2167,80.3167,Euronova Freezer
276,Marsh Harbour,BS,80.08,overcast clouds,26.5412,-77.0636,Abaco Beach Resort
282,Taoudenni,ML,84.83,clear sky,22.6783,-3.9836,
284,Arraial Do Cabo,BR,69.66,light intensity drizzle,-22.9661,-42.0278,Pousada Porto Praia
286,Lagoa,PT,67.39,overcast clouds,39.05,-27.9833,Casa Das Faias
287,Dothan,US,65.17,broken clouds,31.2232,-85.3905,Courtyard by Marriott Dothan
288,Serenje,ZM,63.91,few clouds,-13.2325,30.2352,The Kabaso's
290,San Quintin,MX,74.68,clear sky,30.4833,-115.95,Don Eddie's Sport Fishing Center
291,Coari,BR,83.66,overcast clouds,-4.085,-63.1414,HOTEL ALEX FLAT
292,Itumbiara,BR,83.5,overcast clouds,-18.4192,-49.2153,Itumbiara Palace Hotel
293,Samarai,PG,83.53,scattered clouds,-10.6167,150.6667,Nuli Sapi
294,Tual,ID,83.8,overcast clouds,-5.6667,132.75,Grand Vilia Hotel
296,Lorengau,PG,81.27,few clouds,-2.0226,147.2712,Lorengau Harbourside Hotel
297,Nileshwar,IN,78.03,overcast clouds,12.25,75.1,Neeleshwar Hermitage
299,Korhogo,CI,74.17,light rain,9.45,-5.6333,Hôtel Tchinbota
301,Myitkyina,MM,67.5,clear sky,25.3833,97.4,Shwe Phyu Hotel
303,Imbituba,BR,70.83,overcast clouds,-28.24,-48.6703,Praia Hotel Imbituba
305,Arlit,NE,85.6,scattered clouds,18.7369,7.3853,Case de Passage De la Prefecture
306,Kavieng,PG,83.39,light rain,-2.5744,150.7967,Nusa Island Retreat
307,Madang,PG,77.72,scattered clouds,-5.2246,145.7966,Comfort Inn Hotel
308,Chenzhou,CN,60.21,light rain,25.8,113.0333,Thank Inn Chain Hotel hunan chenzhou beihu district wuling square
309,Pitimbu,BR,79.39,scattered clouds,-7.4706,-34.8086,Reserva do Abiaí
310,Dzilam Gonzalez,MX,81.97,overcast clouds,21.2833,-88.9333,posadas
312,Ambilobe,MG,74.41,scattered clouds,-13.2,49.05,Hôtel & Restaurant DIANA Ambilobe
314,Karpathos,GR,66.16,broken clouds,35.507,27.2132,Alex
315,Crestline,US,79.09,clear sky,34.242,-117.2856,Sleepy Hollow Cabins & Hotel
316,Belmonte,BR,78.8,broken clouds,-15.8631,-38.8828,Pousada Monte Carmelo O Pão
320,Cayenne,GF,86.04,scattered clouds,4.9333,-52.3333,Hôtel Le Dronmi
324,Antofagasta,CL,63.68,clear sky,-23.65,-70.4,"Holiday Inn Express Antofagasta, an IHG Hotel"
325,Abong Mbang,CM,68.05,light rain,3.9833,13.1833,Auberge Angle Sur
327,Ahipara,NZ,64.69,overcast clouds,-35.1667,173.1667,Ahipara Holiday Park
331,Agua Verde,MX,88.03,clear sky,22.9,-106.05,
332,Loubomo,CG,74.21,overcast clouds,-4.1997,12.6739,La Dolisienne
333,San Andres,CO,83.79,overcast clouds,12.5847,-81.7006,Hotel Arena Blanca
335,Sesheke,ZM,83.17,overcast clouds,-17.4759,24.2968,Protea Hotel by Marriott Zambezi River Lodge
336,Socorro,US,77.09,clear sky,31.6546,-106.3033,guarderia imss papalote
337,Naliya,IN,78.57,scattered clouds,23.2667,68.8333,jadeja jayendrasinh
338,Kota Belud,MY,76.86,broken clouds,6.351,116.4305,Tang Dynasty Lodge Kota Belud
340,Moron,AR,86.95,broken clouds,-34.6534,-58.6198,Hotel Morón
341,Los Llanos De Aridane,ES,65.95,clear sky,28.6585,-17.9182,Valle Aridane
344,Nova Olinda Do Norte,BR,83.28,broken clouds,-3.8881,-59.0942,Jardim Paiva Hotel
345,Naifaru,MV,81.73,overcast clouds,5.4444,73.3657,Naifaru Residence Guest House
347,Kisangani,CD,70.23,light rain,0.5167,25.2,Grand Ramela Hotel
349,Dhidhdhoo,MV,81.86,overcast clouds,6.8833,73.1,Dhidhoo beach
350,Itoman,JP,71.62,clear sky,26.1247,127.6694,Southern Beach Hotel & Resort Okinawa
351,Cuamba,MZ,70.32,clear sky,-14.8031,36.5372,Hotel Vision
352,Veraval,IN,77.79,overcast clouds,20.9,70.3667,Lords Inn Somnath
353,Kudahuvadhoo,MV,81.88,overcast clouds,2.6708,72.8944,Niyama Private Islands Maldives
354,Dwarka,IN,79.77,overcast clouds,22.2394,68.9678,Hotel Narayan Avezika Comfort
356,Caravelas,BR,74.82,few clouds,-17.7125,-39.2481,Pousada dos Navegantes
357,Pochutla,MX,88.83,scattered clouds,15.7432,-96.4661,Hotel Posada San Jose
358,Ishigaki,JP,75.47,overcast clouds,24.3448,124.1572,Hotel Peace Land Ishigakijima
359,Sao Miguel Do Tapuio,BR,89.8,overcast clouds,-5.5036,-41.3233,Hotel Tropical
363,Bustamante,MX,78.8,clear sky,26.5333,-100.5,Hotel Hacienda los Nogales
365,Darnah,LY,69.42,clear sky,32.767,22.6367,فندق الفردوس
370,Eydhafushi,MV,81.73,overcast clouds,5.1033,73.0708,Soneva Fushi
373,Negombo,LK,75.25,scattered clouds,7.2083,79.8358,Hotel Sunset Beach
377,Kaoma,ZM,73.62,broken clouds,-14.7833,24.8,KAOMA AIRPORT
378,Abnub,EG,75.42,overcast clouds,27.2696,31.1511,Romany Adly Gad
383,Bambous Virieux,MU,72.21,broken clouds,-20.3428,57.7575,Casa Tia Villa
385,Caluquembe,AO,65.43,overcast clouds,-13.7833,14.6833,Hotel Kalukembe
386,Gushikawa,JP,70.83,clear sky,26.3544,127.8686,Kirari Guest House
387,Kabalo,CD,70.02,scattered clouds,-6.05,26.9167,
389,Chipata,ZM,66.51,clear sky,-13.6333,32.65,Protea Hotel by Marriott Chipata
390,Airai,TL,60.93,overcast clouds,-8.9266,125.4092,Juvinal Martin
391,Castro Alves,BR,73.15,clear sky,-12.7656,-39.4283,Hotel e Restaurante do Poeta
395,Mackay,AU,80.04,clear sky,-21.15,149.2,International Lodge Motel
399,Qurayyat,SA,69.98,clear sky,31.3318,37.3428,Mozon Furnished Aprtments
400,Kailua,US,83.75,scattered clouds,21.4022,-157.7394,Sheffield House Bed & Breakfast
403,Meulaboh,ID,75.22,light rain,4.1363,96.1285,Kost Pria
404,Port-Gentil,GA,80.56,thunderstorm,-0.7193,8.7815,Fengshui Residence
405,Sola,VU,81.61,overcast clouds,-13.8833,167.55,Leumerus Bungalows
406,Auki,SB,82.29,broken clouds,-8.7676,160.7034,Auki Motel
407,Casimiro Castillo,MX,84.56,scattered clouds,19.6,-104.4333,Hotel San José
408,Lodwar,KE,86.05,overcast clouds,3.1191,35.5973,Solmar Gracious Hotel
409,Tutoia,BR,80.08,overcast clouds,-2.7619,-42.2744,Pousada Guará's
410,Tiznit,MA,63.03,clear sky,29.5833,-9.5,
411,Sao Felix Do Xingu,BR,86.05,scattered clouds,-6.6447,-51.995,Rio Xingu Camping
412,Bentiu,SS,77.2,broken clouds,9.2333,29.8333,Mandela hôtel
413,Tahoua,NE,86.92,broken clouds,14.8888,5.2692,Bungalows Guesthouse
414,Rangpur,BD,68.79,clear sky,25.75,89.25,Hotel Shah Amanat
415,Dingle,PH,75.83,light rain,10.9995,122.6711,SEGAYA PROPERTY
419,Bernalillo,US,75.25,clear sky,35.05,-106.6673,DoubleTree by Hilton Hotel Albuquerque
420,Isangel,VU,78.91,clear sky,-19.55,169.2667,Tanna Lodge
421,Luena,AO,62.83,moderate rain,-11.7833,19.9167,Hotel Kandamba
422,Santa Isabel Do Rio Negro,BR,81.59,overcast clouds,-0.4139,-65.0192,Hotel GSA
423,Oussouye,SN,80.78,overcast clouds,12.485,-16.5469,Auberge du Routard
424,Praia,CV,79.34,broken clouds,14.9215,-23.5087,LT Aparthotel
425,Mercedes,AR,87.85,scattered clouds,-34.6515,-59.4307,Posada del Inti Centro
426,Mabaruma,GY,79.38,broken clouds,8.2,-59.7833,Monty Brooms Guest House
427,Saint-Joseph,RE,68.47,few clouds,-21.3667,55.6167,"""Plantation Bed and Breakfast"
432,Saint George,US,78.53,clear sky,37.1041,-113.5841,Best Western Plus Abbey Inn
434,Tucumcari,US,72.95,clear sky,35.1717,-103.725,"Holiday Inn Express & Suites Tucumcari, an IHG Hotel"
437,Richards Bay,ZA,67.95,light rain,-28.783,32.0377,BON Hotel Waterfront Richards Bay
440,Talara,PE,74.16,clear sky,-4.5772,-81.2719,Hostal Oro Negro
443,Abaete,BR,80.58,overcast clouds,-19.16,-45.4458,Hotel Millenium
444,Plettenberg Bay,ZA,62.17,overcast clouds,-34.0527,23.3716,Thanda Vista B&B
445,Yeppoon,AU,76.78,scattered clouds,-23.1333,150.7333,Villa Mar Colina
446,Cabo Rojo,PR,86.68,few clouds,18.0866,-67.1457,Hotel Perichi's
447,Muli,MV,82.2,overcast clouds,2.9167,73.5667,Medhufushi Island Resort
450,Aquin,HT,82.78,few clouds,18.2833,-73.4,Asheev Beach
451,Lixourion,GR,61.74,overcast clouds,38.2019,20.4314,Hotel Summery
454,Buenos Aires,AR,86.94,clear sky,-34.6132,-58.3772,Hotel NH Buenos Aires City
457,Adeje,ES,70.88,scattered clouds,28.1227,-16.726,Gran Tacande Wellness & Relax
458,Eureka,US,67.19,overcast clouds,40.8021,-124.1637,Eureka Inn Trademark By Wyndham
459,Miles City,US,68.5,scattered clouds,46.4083,-105.8406,FairBridge Inn & Suites Miles City
462,Dayong,CN,72.9,light rain,25.0209,118.2898,Haiyue Express Hotel
463,Tchollire,CM,79.39,overcast clouds,8.4022,14.1698,"Auberge ""l'amicale"""
464,Kutum,SD,72.64,scattered clouds,14.2,24.6667,Dibbo areaمنطقة دبو
465,Hounde,BF,82.83,broken clouds,11.5,-3.5167,Carrefour où ouvriers dorment
467,Poum,NC,75.63,clear sky,-20.2333,164.0167,Gîte kajeon
472,Lang Suan,TH,78.53,overcast clouds,9.9456,99.0785,Langsuan Resort
477,Praia Da Vitoria,PT,70.05,few clouds,38.7333,-27.0667,Hotel Branco I
478,Mananjary,MG,68.9,overcast clouds,-21.2167,48.3333,Vahiny Lodge
479,Omboue,GA,77.32,overcast clouds,-1.5746,9.2618,Hotel Olako
480,Manga,BF,86.52,scattered clouds,11.6636,-1.0731,Auberge du 11 décembre de la cité CNSS à Manga
481,Paulo Afonso,BR,80.28,overcast clouds,-9.4061,-38.2147,Pousada Ilha Bela
484,Chicama,PE,63.14,scattered clouds,-7.8447,-79.1469,Balihai Bungalows
485,Kaniama,CD,65.88,few clouds,-7.5667,24.1833,
486,Vangaindrano,MG,64.02,scattered clouds,-23.35,47.6,Hotel Fanilo
489,Souillac,MU,72.36,broken clouds,-20.5167,57.5167,Shanti Maurice Resort & Spa
492,Kalmunai,LK,79.34,overcast clouds,7.4167,81.8167,VS Villa
495,Micheweni,TZ,78.46,scattered clouds,-4.9667,39.8333,
496,Tautira,PF,80.62,scattered clouds,-17.7333,-149.15,Pension Oaoa
497,Kilindoni,TZ,78.55,few clouds,-7.9139,39.6668,Bustani B&B
499,Puerto Del Rosario,ES,69.55,few clouds,28.5004,-13.8627,Hotel JM Puerto del Rosario
500,Nelson Bay,AU,68.09,clear sky,-32.7167,152.15,Mantra Nelson Bay
501,Santa Maria,BR,85.3,clear sky,-29.6842,-53.8069,Hotel Morotin
502,Pauini,BR,85.96,overcast clouds,-7.7136,-66.9764,Casa do Kiwliks
503,Victoria,HK,76.98,broken clouds,22.2855,114.1577,Mini Hotel Central
504,Gold Coast,AU,77.18,overcast clouds,-28.0,153.4333,Mantra Towers of Chevron Surfers Paradise
506,Turan,VN,76.98,broken clouds,16.0678,108.2208,Sun River Hotel
508,Ridgecrest,US,83.64,clear sky,35.6225,-117.6709,SpringHill Suites by Marriott Ridgecrest
510,Wajir,KE,82.44,broken clouds,1.7471,40.0573,Al-bustan Hotel And Restaurant.
511,Labrea,BR,83.41,overcast clouds,-7.2586,-64.7981,Hotel Novo Horizonte
514,Kiama,AU,62.01,overcast clouds,-34.6833,150.8667,The Sebel Kiama Harbourside
515,Niquero,CU,84.11,overcast clouds,20.0431,-77.5828,Islazul Niquero
516,Kalemie,CD,72.19,clear sky,-5.9475,29.1947,Mahobilali
517,Ailigandi,PA,81.91,overcast clouds,9.2333,-78.0167,Akwa Reef Lodge
519,Miri,MY,77.14,scattered clouds,4.4148,114.0089,"Mega Hotel, Miri"
521,Neiafu,TO,74.08,light rain,-18.65,-173.9833,Mystic Sands Beachfront Accommodation
530,Salalah,OM,79.11,clear sky,17.0151,54.0924,"HAMDAN PLAZA HOTEL SALALAH, an HTG Hotel"
531,Santana Do Acarau,BR,82.98,scattered clouds,-3.4606,-40.2122,Chácara Mister Juan
532,Asyut,EG,75.38,overcast clouds,27.181,31.1837,Florence Hotel Assiut
533,Effium,NG,80.71,overcast clouds,6.6292,8.0593,
536,Prieska,ZA,64.94,clear sky,-29.6641,22.7474,Avenue GuestHouse
537,Bambanglipuro,ID,77.29,overcast clouds,-7.95,110.2833,Puri Brata
538,Sydney,AU,63.59,broken clouds,-33.8679,151.2073,The Grace Sydney
543,Nha Trang,VN,77.0,overcast clouds,12.25,109.1833,Sheraton Nha Trang Hotel & Spa
545,Kavaratti,IN,81.97,overcast clouds,10.5669,72.642,Hotels in Lakshadweep Islands
546,Bandarbeyla,SO,78.15,few clouds,9.4942,50.8122,JABIR HOTEL
547,Gorontalo,ID,74.84,overcast clouds,0.5412,123.0595,Maqna Hotel by Prasanthi
550,Mongo,TD,83.75,clear sky,12.1844,18.693,Résidences du Programme FIDA
552,Nizwa,OM,73.69,clear sky,22.9333,57.5333,Orient Apartments
554,Guaruja,BR,78.17,scattered clouds,-23.9931,-46.2564,Charme Hotel Guarujá
555,Menongue,AO,64.8,overcast clouds,-14.6585,17.691,Ritz Lauca
556,La Macarena,CO,79.83,light rain,2.1837,-73.7849,Hotel Punto Verde
557,Pietermaritzburg,ZA,63.68,overcast clouds,-29.6168,30.3928,Redlands Hotel
558,Yanam,IN,76.41,moderate rain,16.7333,82.2167,The Regency Hotel
561,Hobyo,SO,79.74,clear sky,5.3505,48.5268,Halane Hotel and Restaurent
563,Puerto Leguizamo,CO,82.53,broken clouds,-0.1934,-74.7819,la casona de juancho
564,Soyo,AO,78.8,broken clouds,-6.1349,12.3689,Hotel Mpampa
566,Kampong Chhnang,KH,74.79,overcast clouds,12.1667,104.55,Waterfall Resort អមលាំង
567,Tadine,NC,73.72,scattered clouds,-21.55,167.8833,
568,Abengourou,CI,72.77,overcast clouds,6.7297,-3.4964,Hotel des Princes
569,Khunti,IN,64.81,overcast clouds,23.0833,85.2833,JD
570,Assare,BR,88.34,broken clouds,-6.8744,-39.875,José Xavier de Andrade
572,Naberera,TZ,64.33,overcast clouds,-4.2,36.9333,
573,Jardim,BR,73.8,broken clouds,-21.4803,-56.1381,Estancia Hotel - Jardim MS
579,Inyonga,TZ,77.38,overcast clouds,-6.7167,32.0667,Eden Rock Lodge
580,Banjarmasin,ID,75.34,overcast clouds,-3.3244,114.591,Swiss-Belhotel Borneo Banjarmasin
582,Manzanillo,CU,87.53,overcast clouds,20.3433,-77.1167,"HOSTAL ""THE YELLOW HOUSE"""
583,Alta Floresta,BR,83.32,overcast clouds,-9.8756,-56.0861,Floresta Amazonica Hotel
584,Hyeres,FR,64.69,clear sky,43.1167,6.1167,Hôtel des Palmiers
588,Sehwan,PK,80.31,clear sky,26.4279,67.863,Lal Shahbaz Motel STDC
589,Mizdah,LY,64.0,few clouds,31.4451,12.9801,محمدالمبروك الاريقط
591,Phan Thiet,VN,75.99,overcast clouds,10.9333,108.1,Hotel Saigon-PT
592,Vila Velha,BR,74.55,overcast clouds,-20.3297,-40.2925,Quality Suites Vila Velha
594,Byron Bay,AU,77.7,overcast clouds,-28.65,153.6167,Backpackers Inn on the Beach
596,Bacolod,PH,78.08,overcast clouds,10.6667,122.95,Planta Hotel & Residences
598,Kipushi,CD,74.26,overcast clouds,-11.7667,27.2333,Villa Madimba
602,Littleton,US,76.91,clear sky,39.6133,-105.0166,InTown Suites Extended Stay Denver CO - Englewood
605,San Juan Evangelista,MX,79.3,broken clouds,17.9,-95.1333,Salon INAPAM San Juan Evangelista
606,Ouadda,CF,71.28,overcast clouds,8.0777,22.4007,
608,Ondjiva,AO,78.17,overcast clouds,-17.0667,15.7333,COMBUESA
609,Wanning,CN,76.03,overcast clouds,18.8003,110.3967,Paradise Hotel
610,Premia De Mar,ES,67.32,light rain,41.4921,2.3652,Hotel Vila de Premià
611,Talcahuano,CL,60.55,overcast clouds,-36.7167,-73.1167,departamento comodo
613,Hanmer Springs,NZ,60.62,clear sky,-42.5167,172.8167,The Chalets Motel
614,Itaituba,BR,85.69,broken clouds,-4.2761,-55.9836,Hotel Campos
617,Kununurra,AU,80.58,few clouds,-15.7667,128.7333,Hotel Kununurra
618,Kirakira,SB,82.76,broken clouds,-10.4544,161.9205,SanBiz Lodge
621,Piacabucu,BR,75.79,scattered clouds,-10.4056,-36.4344,Piaçabuçu News
628,Durango,MX,71.65,clear sky,24.8333,-104.8333,
630,Doha,QA,84.18,clear sky,25.2867,51.5333,Movenpick Hotel Doha
631,Daru,PG,81.82,overcast clouds,-9.0763,143.2092,Daru Lodge
632,Aitape,PG,78.91,overcast clouds,-3.1374,142.3475,
635,Lambarene,GA,75.74,light rain,-0.7001,10.2406,Le Refuge
636,Kuching,MY,75.42,scattered clouds,1.55,110.3333,The Ranee Boutique Suites
640,Maoming,CN,72.16,broken clouds,21.65,110.9,Jinhui Hotel
641,Kikwit,CD,70.11,overcast clouds,-5.041,18.8162,HOTEL PLACE YALABA
642,Japura,ID,73.74,overcast clouds,-0.3167,102.35,Rumah mbah Jamah
644,Morondava,MG,74.3,overcast clouds,-20.2833,44.2833,La Case Bambou
646,Sechura,PE,75.88,broken clouds,-5.5569,-80.8222,Hospedaje Costa Bella
648,Odweyne,SO,72.95,scattered clouds,9.4092,45.064,Eng Hiirey House
650,Alizai,PK,61.16,clear sky,33.5383,70.3462,Alizai Rest House
652,Ramsar,IR,62.1,overcast clouds,36.9226,50.6426,Rasa Residential Hotel
654,Porto Walter,BR,79.02,overcast clouds,-8.2686,-72.7439,Secretaria de saúde
657,Araouane,ML,84.65,broken clouds,18.9048,-3.5265,
661,Rawson,AR,67.53,broken clouds,-43.3002,-65.1023,Hosteria Sampedro
662,Butia,BR,73.27,clear sky,-30.1197,-51.9622,Restaurante e Churrascaria Santo Antonio Ltda
663,Ca Mau,VN,76.35,light rain,9.1769,105.15,Khách Sạn Mường Thanh Luxury Cà Mau
666,Weatherford,US,71.1,clear sky,32.7593,-97.7972,"Candlewood Suites Weatherford, an IHG Hotel"
667,Ardakan,IR,61.93,few clouds,32.31,54.0175,Ardakan Hotel
669,Kara,TG,80.37,overcast clouds,9.5511,1.1861,Hotel Ma Vision B2K
671,Mae Hong Son,TH,71.04,broken clouds,19.3003,97.9685,Baiyoke Chalet Hotel
672,Bull Savanna,JM,82.56,scattered clouds,17.8868,-77.5902,Big Red's
676,Biak,ID,76.69,broken clouds,-0.9131,122.8766,Penginapan Kim
677,Bela,IN,67.32,clear sky,25.9333,81.9833,Raj Bhawan
680,Sibi,PK,75.81,clear sky,29.5448,67.8764,Jail Superintendent House
682,Sibu,MY,73.96,light rain,2.3,111.8167,RH HOTEL (4 Star)
683,Lat Yao,TH,73.06,overcast clouds,15.751,99.7893,หจก. ลาดยาวการเกษตร
684,Rio Grande,BR,70.95,clear sky,-32.035,-52.0986,Hotel Atlântico Rio Grande
685,Vicente Guerrero,MX,64.98,broken clouds,19.1194,-98.1708,Churros Inn
686,Sao Joao Da Barra,BR,71.01,overcast clouds,-21.6403,-41.0511,Pousada Porto De Canoas
687,Sayan,PE,77.38,scattered clouds,-11.1361,-77.1933,Hotel Restaurant Vanessa
688,Paraiso,CR,73.89,overcast clouds,9.8383,-83.8656,Hotel Rinconcito Verde
690,Wawa,NG,80.6,overcast clouds,9.9022,4.4192,
691,Buta,CD,70.3,light rain,2.7858,24.73,HOTEL BISO NA BISO
692,Mankono,CI,78.01,overcast clouds,8.0586,-6.1897,Centre d'accueil Emmaüs
693,Cameron Park,US,79.32,clear sky,38.6688,-120.9872,Quality Inn & Suites Cameron Park Shingle Springs
698,The Hammocks,US,86.02,overcast clouds,25.6715,-80.4445,Casa tío Hernan
707,Wamba,NG,76.15,scattered clouds,8.9333,8.6,Roma Zee Guest House Annex
708,Mayo,US,63.95,mist,38.8876,-76.5119,Resorts Resource Group International
710,Agustin Codazzi,CO,73.27,overcast clouds,10.0341,-73.2361,Hotel perija
711,Temple Terrace,US,80.02,overcast clouds,28.0353,-82.3893,La Quinta Inn & Suites by Wyndham USF (Near Busch Gardens)
712,Lodja,CD,67.82,overcast clouds,-3.4833,23.4333,
713,Umm Lajj,SA,83.53,clear sky,25.0213,37.2685,Moon light Furnished Units
714,Isla Mujeres,MX,84.16,broken clouds,21.2311,-86.731,Hotel La Joya Isla Mujeres
717,Lata,PT,67.93,light rain,40.1629,-8.3327,Casa Maquia
718,Betare Oya,CM,68.45,overcast clouds,5.6,14.0833,Auberge Tembina Betaré Oya
720,Inirida,CO,80.04,overcast clouds,3.8653,-67.9239,Fuente del Guania Hotel de Lujo
722,Cassilandia,BR,77.36,broken clouds,-19.1133,-51.7342,Delirius Motel
723,Selma,US,81.1,broken clouds,36.5708,-119.6121,"Holiday Inn Selma-Swancourt, an IHG Hotel"
724,Casa Nova,BR,86.32,overcast clouds,-9.4167,-41.1333,Pousada e Restaurante Dona Xinha
728,Katobu,ID,75.13,overcast clouds,-4.9408,122.5276,La Ode Husein
729,Cortazar,MX,79.92,clear sky,20.4833,-100.9333,Hotel El Carro
738,Darlawn,IN,61.97,scattered clouds,24.0167,92.9,BNRGSK BUILDING
740,Umm Kaddadah,SD,84.04,broken clouds,13.6017,26.6876,
741,Marawi,PH,65.64,clear sky,7.9986,124.2928,Derogongan Residence
743,Lucapa,AO,65.88,broken clouds,-8.4192,20.7447,Residência Ulisses Dos Santos
745,Balabac,PH,81.54,scattered clouds,7.9868,117.0645,Sing and Swing Lodge
746,Wum,CM,66.07,overcast clouds,6.3833,10.0667,Wum Council Hall
747,Camopi,GF,82.29,broken clouds,3.1655,-52.3158,La pousada
750,Deori Khas,IN,61.66,scattered clouds,23.4,79.0167,SAMARPAD COMPUTER DEORI
752,Bandar-E Lengeh,IR,80.74,clear sky,26.5579,54.8807,کافی نت پارس
753,Makaha,US,85.98,broken clouds,21.4694,-158.2175,Hawaiian Princess Resort
754,Merauke,ID,79.25,overcast clouds,-8.4667,140.3333,
755,Kulhudhuffushi,MV,81.59,overcast clouds,6.6221,73.07,Haajy Guest House 1
756,Dutlwe,BW,71.91,overcast clouds,-23.9833,23.9,
759,Karratha,AU,69.98,clear sky,-20.7377,116.8463,ibis Styles Karratha
760,Aden,YE,83.84,scattered clouds,12.7794,45.0367,Sama Emirate Hotel
761,Bubaque,GW,83.39,light rain,11.2833,-15.8333,"Casa Dora, Bubaque"
762,Birao,CF,77.43,overcast clouds,10.2849,22.7882,
763,Gisborne,NZ,66.94,clear sky,-38.6533,178.0042,ASURE Alfresco Motor Lodge
766,Medowie,AU,68.79,overcast clouds,-32.7333,151.8667,
767,Maputo,MZ,71.28,clear sky,-25.9653,32.5892,Pestana Rovuma
768,Camara De Lobos,PT,72.23,few clouds,32.6333,-16.9667,Golden Residence Hotel
769,Morehead,US,60.62,overcast clouds,37.2711,-87.1764,CCI Express Inn
770,Bilma,NE,82.45,few clouds,18.6853,12.9164,Expeditions Ténére voyages
772,Garowe,SO,72.19,clear sky,8.4054,48.4845,Curubo Hotel
776,Paraguacu Paulista,BR,80.22,few clouds,-22.4128,-50.5758,Hotel Água das Araras
779,Sao Filipe,CV,79.56,broken clouds,14.8961,-24.4956,Hotel Xaguate
780,Panguna,PG,75.33,overcast clouds,-6.3164,155.4848,
781,Kaberamaido,UG,70.38,overcast clouds,1.7389,33.1594,"Little Orchard, Kaberamaido"
782,Banfora,BF,78.93,broken clouds,10.6333,-4.7667,Residences David Hebié
783,Kralendijk,BQ,82.2,overcast clouds,12.15,-68.2667,Divi Flamingo Beach Resort & Casino
788,Puerto Escondido,MX,85.57,few clouds,15.85,-97.0667,Aldea del Bazar Hotel and Spa
789,Dafeng,CN,62.55,overcast clouds,23.4517,108.5881,Shenglong Hotel
790,Nata,PA,79.47,overcast clouds,8.3333,-80.5167,Rey David
791,Mbour,SN,83.25,overcast clouds,14.422,-16.9638,Tama Lodge
792,Kieta,PG,82.92,light rain,-6.2167,155.6333,Uruna Bay Retreat
793,Witu,KE,78.96,broken clouds,-2.3889,40.4382,
796,Samfya,ZM,75.45,few clouds,-11.3649,29.5565,Chita Lodge Samfya
797,Foumban,CM,64.33,overcast clouds,5.7291,10.9001,Hotel Pekassa De Karche
798,Gamba,GA,76.89,light rain,-2.65,10.0,
799,Franco Da Rocha,BR,70.68,overcast clouds,-23.3217,-46.7269,Residencial Coliseum
800,Santa Maria Do Suacui,BR,73.76,overcast clouds,-18.1903,-42.4142,Hotel Vale Verde
801,Katol,IN,64.78,scattered clouds,21.2667,78.5833,Rocks Celibration lawn
803,Mana,GF,79.81,overcast clouds,5.6592,-53.7767,LE SAMANA
805,Porto Novo,BJ,79.32,overcast clouds,6.4965,2.6036,Tour Eiffel Hotel Benin
807,Puerto Lopez,CO,82.54,light rain,4.0845,-72.956,Resguardo Indigena Maguare
808,Hambantota,LK,78.44,overcast clouds,6.1241,81.1185,Bungalow 63
809,Caborca,MX,87.53,clear sky,30.5838,-111.101,Hotel Los Lagos
812,Sidney,AU,63.59,broken clouds,-33.8679,151.2073,The Grace Sydney
814,Maceio,BR,81.84,clear sky,-9.6658,-35.7353,Poutur Pousada
815,Encruzilhada,BR,69.84,broken clouds,-15.5314,-40.9094,Hotel e Restaurante Rio Pardo
819,Arrecife,ES,69.87,few clouds,28.963,-13.5477,Hotel Lancelot
820,Comodoro Rivadavia,AR,78.66,clear sky,-45.8667,-67.5,Austral Hotel
821,Fukue,JP,65.61,overcast clouds,32.6881,128.8419,Goto Guesthouse Utojuku & SA Car Rental
823,Chimbarongo,CL,81.72,few clouds,-34.7,-71.05,Hostal Ruka Kamañ
826,Phon,TH,73.85,overcast clouds,15.816,102.5998,Baan Kru Tum Chiang Khan
827,Nanning,CN,64.85,overcast clouds,22.8167,108.3167,Nanning Travelling With Hostel
828,Gangapur,IN,67.78,clear sky,26.4833,76.7167,OYO 45271 Hotel Haveli
832,Naze,JP,69.44,overcast clouds,28.3667,129.4833,オーベルジュ・アガルイ
834,Ekangala,ZA,64.29,moderate rain,-25.6962,28.7492,Mbal'enhle Guest House
835,Saint Andrews,US,64.49,broken clouds,34.0454,-81.1293,Baymont by Wyndham Columbia Northwest
836,Sinnamary,GF,80.98,few clouds,5.3833,-52.95,ALETHEIA Appartement Sinnamary
837,Mitu,CO,75.78,broken clouds,1.1983,-70.1733,
838,Kabanjahe,ID,64.35,overcast clouds,3.1001,98.4908,Kos-Kosan wanita muslim bagoes kabanjahe
839,Lovington,US,74.03,clear sky,32.944,-103.3485,Buena vida rv parks
843,Mount Pleasant,US,70.09,broken clouds,32.7941,-79.8626,Best Western Patriots Point
844,Guarapari,BR,73.24,overcast clouds,-20.6667,-40.4975,Hotel Porto do Sol
846,Katherine,AU,77.32,overcast clouds,-14.4667,132.2667,Pine Tree Motel
849,Galle,LK,77.97,broken clouds,6.0367,80.217,Amangalla
850,Vinh,VN,72.39,light rain,18.6667,105.6667,Khách Sạn Thương Mại
851,Santa Catalina,PH,78.03,scattered clouds,9.3337,122.8637,BreakWater Beach Sta Catalina Negros Oriental
852,Urucara,BR,87.89,broken clouds,-2.5364,-57.76,Pousada Maria Bonita
853,Mitsamiouli,KM,78.13,scattered clouds,-11.3847,43.2844,Foyer ADM
857,Valparaiso,CL,64.63,fog,-33.0393,-71.6273,Hotel Ultramar
860,Mahibadhoo,MV,82.24,overcast clouds,3.7833,72.9667,Omadhoo Inn
861,Tiarei,PF,80.62,few clouds,-17.5333,-149.3333,Le Rocher de Tahiti
862,Lola,GN,70.34,light rain,7.8,-8.5333,
864,Estelle,US,66.0,broken clouds,29.8458,-90.1067,Boomtown Casino & Hotel New Orleans
865,Kidal,ML,88.02,broken clouds,18.4411,1.4078,
867,Chimbote,PE,66.85,few clouds,-9.0853,-78.5783,Hotel Viera Chimbote
870,Touros,BR,79.68,few clouds,-5.1989,-35.4608,INN NEW HORIZON
872,Candelaria,PH,74.88,scattered clouds,13.9311,121.4233,Casa de Provincia
873,Mocuba,MZ,66.47,few clouds,-16.8392,36.9856,Phama Lodge
874,Tshane,BW,73.18,broken clouds,-24.0196,21.8684,
875,Pemangkat,ID,77.43,overcast clouds,1.1667,108.9667,Ramah Kost KITA
877,Misratah,LY,70.83,clear sky,32.3754,15.0925,Almasa Hotel
878,Dangriga,BZ,85.98,overcast clouds,16.9692,-88.2321,Chaleanor Hotel
881,Ruteng,ID,63.28,broken clouds,-8.6136,120.4721,Hotel FX 72
883,Isiro,CD,65.89,light rain,2.7739,27.616,Guest House Hewa Bora
885,Eten,PE,64.96,overcast clouds,-6.9081,-79.8642,Hospedaje Sol Radiante
891,San Francisco,US,80.92,few clouds,37.7749,-122.4194,The Clift Royal Sonesta Hotel
894,Garissa,KE,79.77,few clouds,-0.4536,39.6401,Sharif Plaza Hotel
895,Rafsanjan,IR,64.17,overcast clouds,30.4067,55.9939,Rafsanjan Tourism Hotel
896,Takoradi,GH,79.32,overcast clouds,4.8845,-1.7554,Raybow International Hotel
897,Cotmon,PH,75.27,few clouds,13.1175,123.6637,Club Williams Resort
898,Hun,LY,68.27,clear sky,29.1268,15.9477,Alrwasi Hotel
900,Jacksonville,US,70.11,broken clouds,30.3322,-81.6556,Hyatt Regency Jacksonville Riverfront
902,Awbari,LY,69.84,scattered clouds,26.5921,12.7805,فندق أوباري
904,Singaparna,ID,71.85,overcast clouds,-7.3515,108.111,Wisma Dewi Hotel
905,Uyuni,BO,64.96,clear sky,-20.4597,-66.825,Hostal La Magia de Uyuni
906,Baghdad,IQ,69.71,scattered clouds,33.3406,44.4009,Baghdad Hotel
909,Lahaina,US,84.2,broken clouds,20.8783,-156.6825,Lahaina Shores Beach Resort
910,Reus,ES,66.87,few clouds,41.1561,1.1069,Hotel NH Ciutat de Reus
912,Newcastle,AU,68.79,overcast clouds,-32.9272,151.7765,NOAH'S on the beach
913,Camana,PE,67.78,few clouds,-16.6228,-72.7111,Hostal Morales
914,Sale,MA,63.75,broken clouds,34.0389,-6.8166,Hôtel Mercure Rabat Sheherazade
915,Bartica,GY,78.46,overcast clouds,6.4,-58.6167,Sloth Island Nature Resort
917,Mecca,SA,82.58,clear sky,21.4267,39.8261,"Makkah Clock Royal Tower, A Fairmont Hotel"
918,Segou,ML,85.44,overcast clouds,13.4317,-6.2157,Comme chez soi
919,Nabire,ID,74.8,overcast clouds,-3.3667,135.4833,Hotel Nusantara Nabire
920,Cravo Norte,CO,81.48,moderate rain,6.3017,-70.2041,Hotel Potosí Los Mirtos
922,Paracatu,BR,81.86,scattered clouds,-17.2222,-46.8747,Hotel Paracatu Plaza
923,Havelock,US,71.55,few clouds,34.8791,-76.9013,Sherwood Motel
924,Basco,PH,79.12,scattered clouds,20.4487,121.9702,Nathaniel's Lodge
925,Axim,GH,79.38,overcast clouds,4.8699,-2.2405,Axim Beach Resort And Spa
927,Teknaf,BD,76.93,few clouds,20.8624,92.3058,Forestry Guesthouse
928,Melo,UY,71.1,few clouds,-32.3667,-54.1833,Hotel Juana
929,Ampanihy,MG,62.17,clear sky,-24.7,44.75,Angora Hotel
930,Kuah,MY,81.84,overcast clouds,6.3265,99.8432,Azio Hotel
932,Coxim,BR,73.17,overcast clouds,-18.5067,-54.76,Hotel Avenida
934,Epe,NG,77.74,overcast clouds,6.5841,3.9834,MAGVILLE HOTEL
935,Owando,CG,69.04,overcast clouds,-0.4819,15.8999,Exaunel Hotel Owando
937,Formosa Do Rio Preto,BR,83.97,broken clouds,-11.0483,-45.1931,Porto Center Hotel
938,Christchurch,NZ,62.91,broken clouds,-43.5333,172.6333,The George
941,Honiara,SB,82.99,broken clouds,-9.4333,159.95,Heritage Park Hotel
945,Rabo De Peixe,PT,70.29,scattered clouds,37.8,-25.5833,Quinta das Giestas
946,Mandera,KE,86.23,broken clouds,3.9366,41.867,Kornesh Hotel and Lodging
948,Narasannapeta,IN,76.26,overcast clouds,18.4167,84.05,G.lingaraju home
949,Camapua,BR,83.91,broken clouds,-19.5314,-54.0439,Comercial Estrela
951,Pozo Colorado,PY,84.25,moderate rain,-23.4923,-58.7972,Hospedaje la Amistad
952,Denham Springs,US,64.26,overcast clouds,30.4869,-90.9562,Hampton Inn Baton Rouge - Denham Springs
954,Kiboga,UG,62.83,overcast clouds,0.9161,31.7742,Marie Lustenberger Guest House
955,Paredon,MX,87.94,broken clouds,16.0333,-93.8667,Hotel Principal Paredon
956,San Antonio,US,79.25,clear sky,29.4241,-98.4936,Drury Plaza Hotel San Antonio Riverwalk
957,Angoram,PG,76.03,overcast clouds,-4.0625,144.0661,
958,Ranong,TH,78.67,overcast clouds,9.9658,98.6348,Tinidee Hotel@Ranong
959,Ayia Galini,GR,63.99,overcast clouds,35.1,24.6833,Sunningdale Bungalows
960,Iberia,US,65.98,overcast clouds,29.9502,-91.7507,back to back rv park
961,Bo Phloi,TH,78.31,overcast clouds,14.3236,99.5161,แอท เมืองพลอย รีสอร์ท At MuangPloy Resort
962,Marsa Matruh,EG,72.12,overcast clouds,31.3525,27.2453,Beau Site
963,Palora,EC,78.91,light rain,-1.7,-77.9333,Rancho grande
964,Taltal,CL,66.7,few clouds,-25.4,-70.4833,Residencial Karime
965,Fougamou,GA,74.86,moderate rain,-1.2154,10.5838,Résidence d'Hôtes Bapedy
967,Sohag,EG,78.04,broken clouds,26.557,31.6948,Civil Registry - Sohag 1
968,Kupang,ID,79.66,broken clouds,-10.1667,123.5833,Hotel On The Rock by Prasanthi
969,Hukuntsi,BW,73.96,overcast clouds,-24.0,21.75,Entabeni Hotel
970,Conceicao Do Araguaia,BR,89.38,overcast clouds,-8.2578,-49.2647,Tarumã Tropical Hotel
971,Mindelo,CV,76.55,broken clouds,16.8901,-24.9804,Hotel Gaudi
972,Mapiripan,CO,82.35,broken clouds,2.8892,-72.1256,Monserrate
976,Mongu,ZM,77.05,broken clouds,-15.2484,23.1274,Country Lodge Mongu
980,Upata,VE,77.2,light rain,8.0086,-62.3989,Posada Villa Nela
984,Canavieiras,BR,78.76,scattered clouds,-15.675,-38.9472,Bahiadomizil
985,Pathein,MM,75.72,overcast clouds,16.7833,94.7333,New Pammawaddy Hotel
986,Mopti,ML,89.74,overcast clouds,14.6667,-4.0,
987,Zhangzhou,CN,73.15,light rain,24.5133,117.6556,Borrman Hotel Zhangzhou Bus Station Branch
988,Martinopolis,BR,82.45,clear sky,-22.1458,-51.1708,Hotel Pousada Sollar - Martinópolis-SP
989,Jiujiang,CN,62.2,light rain,29.7333,115.9833,Tianhai Fashion Theme Hotel
991,Yaan,NG,80.01,overcast clouds,7.3833,8.5667,
992,Lalmohan,BD,77.04,broken clouds,22.3384,90.7419,Sundorbon courier service
994,Sira,IN,70.2,overcast clouds,13.7453,76.9092,Healthy lifestyle club
995,General Roca,AR,88.63,overcast clouds,-39.0333,-67.5833,Hotel y Casino del Río General Roca
996,Ravar,IR,61.0,overcast clouds,31.2656,56.8055,کافی نت و کامپیوترپرشین سیستم
997,Grand Baie,MU,72.45,light rain,-20.0182,57.5802,Trou aux Biches Beachcomber Golf Resort & Spa
998,Capitao Poco,BR,77.09,light rain,-1.7464,-47.0594,Hotel New Tokyo
999,Grand Gaube,MU,72.37,light rain,-20.0064,57.6608,Veranda Paul et Virginie Hotel & Spa
1000,Maroantsetra,MG,72.57,light rain,-15.4333,49.7333,Annexe Vatsy Hôtel
1008,Granadilla De Abona,ES,66.76,scattered clouds,28.1188,-16.576,Hotel Rural Senderos De Abona
1009,Itacoatiara,BR,86.7,broken clouds,-3.1431,-58.4442,BBB Rooms Centro Itacoatiara AM
1011,Chhabra,IN,65.98,broken clouds,24.6667,76.8333,Nagar bhawan
1012,Moerai,PF,72.37,few clouds,-22.4333,-151.3333,Le Manotel
1014,Nishihara,JP,70.88,clear sky,26.1842,127.7558,Minshuku Agaihama
1015,Puerto Carreno,CO,84.85,scattered clouds,6.189,-67.4859,Casa Hotel Victoria
1021,Mossendjo,CG,69.75,overcast clouds,-2.9506,12.7261,HOTEL D'ASSISE
1022,Tabou,CI,77.25,overcast clouds,4.423,-7.3528,hotêl doufoulougou
1023,Campos Altos,BR,68.77,overcast clouds,-19.6961,-46.1714,Hotel São José
1024,Todos Santos,MX,88.11,clear sky,23.45,-110.2167,Hotel California Todos Santos
1026,Praya,CV,79.34,broken clouds,14.9215,-23.5087,LT Aparthotel
1027,Guerrero Negro,MX,82.69,clear sky,27.9769,-114.0611,"Casa Laguna, Bed & Breakfast"
1028,Hue,VN,75.31,broken clouds,16.4667,107.6,Saigon Morin Hotel
1029,Matara,LK,76.39,broken clouds,5.9485,80.5353,Amaloh Boutique Resort
1032,Mapua,NZ,64.18,clear sky,-41.25,173.1,Pine Hill Lodge & Pine Hill Serenity Vineyard
1033,Qingdao,CN,61.56,few clouds,36.0986,120.3719,东晖国际大酒店餐厅
1034,Sibolga,ID,77.31,broken clouds,1.7427,98.7792,Hotel Syariah CN Darussalam
1036,Barcelos,PT,66.92,overcast clouds,41.5388,-8.6151,Hotel Do Terço
1038,Shenjiamen,CN,63.28,scattered clouds,29.9576,122.298,Jinjiang Inn Zhoushan Putuo Shenjiamen
1042,Adiake,CI,80.19,light rain,5.2863,-3.304,Monhotel résidence Inn Adiake
1043,Presidente Medici,BR,85.55,broken clouds,-11.1753,-61.9014,Oliveira Palace Hotel
1045,Mogok,MM,62.8,clear sky,22.9167,96.5,MOGOK HILL HOTEL
1049,Ara,IN,64.29,few clouds,25.5667,84.6667,Hotel The Regal- Arrah
1052,Pando,UY,84.6,clear sky,-34.7167,-55.95,viviendas mvotma
1053,Tucupita,VE,77.25,overcast clouds,9.0622,-62.051,Hotel Tucupita Su​ite C.A.
1056,Angoche,MZ,74.21,clear sky,-16.2325,39.9086,Guest House HESADA
1057,Lagos,NG,77.18,light rain,6.5833,3.75,
1058,Gambela,ET,74.21,overcast clouds,8.25,34.5833,Solomon Debebe Hotel
1061,Immokalee,US,82.94,scattered clouds,26.4187,-81.4173,Seminole Casino Hotel Immokalee
1065,Chiredzi,ZW,72.54,clear sky,-21.05,31.6667,Clevers Hotel Chiredzi
1066,Acajutla,SV,84.16,few clouds,13.5928,-89.8275,asi es
1067,Saravena,CO,76.66,overcast clouds,6.9538,-71.8752,Hotel Diamante Saravena
1068,Chiang Klang,TH,71.62,overcast clouds,19.2938,100.8617,Sangthong Resort
1069,Bitung,ID,77.85,overcast clouds,1.4451,125.1824,K2 Lembeh
1071,Asfi,MA,65.12,broken clouds,32.2994,-9.2372,Hôtel Abda
1073,Taraza,CO,77.16,overcast clouds,7.5836,-75.4007,Hotel Monteverde
1075,Urucui,BR,87.04,overcast clouds,-7.2294,-44.5561,Hotel Premium Piauí
1076,Mbuji-Mayi,CD,70.56,overcast clouds,-6.15,23.6,GKT Hotel
1077,Janauba,BR,82.94,broken clouds,-15.8025,-43.3089,Ouro Norte Palace Hotel
1078,Cacoal,BR,82.27,light rain,-11.4386,-61.4472,Hotel BR 364
1081,Olinala,MX,78.31,scattered clouds,17.8333,-98.85,
1082,Saint-Louis,SN,89.01,overcast clouds,16.3333,-15.0,
1087,Akhnur,IN,61.7,clear sky,32.8667,74.7333,Waryam dass
1088,Saint Augustine,US,71.06,overcast clouds,29.8947,-81.3145,St. George Inn
1090,Mwene-Ditu,CD,65.98,overcast clouds,-7.0,23.45,Hôtel Kamas
1097,Tsiroanomandidy,MG,69.91,broken clouds,-18.7667,46.0333,Hotel du Bongolave
1099,Buchanan,LR,75.16,moderate rain,5.8808,-10.0467,Kamaneahn Hotel Inc
1102,Antalaha,MG,72.77,overcast clouds,-14.9003,50.2788,Hotel Vitasoa
1103,Kyabe,TD,81.37,overcast clouds,9.4515,18.9449,
1104,Ponta Delgada,PT,71.51,scattered clouds,37.7333,-25.6667,Vila Nova Hotel
1105,Quatre Cocos,MU,72.09,few clouds,-20.2078,57.7625,Sunrise Attitude Hotel
1106,Emerald,AU,80.98,scattered clouds,-23.5333,148.1667,The Irish Village
1107,Jalu,LY,72.61,scattered clouds,29.0331,21.5482,صاحبة الفخامة
1109,Jipijapa,EC,80.1,broken clouds,-1.3333,-80.5833,Hotel Los Ceibos Jipijapa
1111,Kumluca,TR,68.09,broken clouds,36.3703,30.2869,TurkuazKöy
1112,Kramat,ID,75.51,overcast clouds,-8.1311,113.4499,Padepokan HM Arum Sabil
1114,Felipe Carrillo Puerto,MX,88.59,broken clouds,19.5833,-88.05,Hotel La Ceiba
1115,Nuevo Progreso,MX,89.6,clear sky,23.1667,-97.95,Balneario Rio el Paraiso
1116,Gat,IL,74.39,overcast clouds,31.61,34.7642,OlusHome
1118,Agutaya,PH,82.78,broken clouds,11.148,120.9417,
1119,Cabra,ES,65.64,overcast clouds,37.4725,-4.4421,MS Fuente Las Piedras
1120,Muriwai Beach,NZ,64.8,light rain,-36.8167,174.45,Coast Retreat Muriwai - Golf and Surf Holiday
1122,Salinas,US,83.98,clear sky,36.6777,-121.6555,Laurel Inn & Conference Center
1123,Kampot,KH,78.85,overcast clouds,10.6167,104.1833,Two Moons Hotel
1129,Bireun,ID,78.51,overcast clouds,5.203,96.7009,Rumah Bp.AR. ISMAIL
1132,La Primavera,CO,82.63,heavy intensity rain,5.4906,-70.4092,La Riviera Hotel Colonial
1134,Yenangyaung,MM,75.85,clear sky,20.4667,94.8833,Hotel Country
1136,Poso,ID,76.26,overcast clouds,-1.3959,120.7524,Hotel 77 Poso
1137,Nandu,CN,67.42,light rain,22.8525,110.8233,
1138,Seremban,MY,78.31,broken clouds,2.7297,101.9381,Klana Resort Seremban
1139,San Policarpo,PH,80.4,scattered clouds,12.1791,125.5072,Agapita M. Nicart
1141,Manta,EC,83.98,clear sky,-0.95,-80.7333,Balandra Hotel
1142,Luganville,VU,82.02,scattered clouds,-15.5333,167.1667,The Espiritu Hotel
1146,Asosa,ET,61.47,clear sky,10.0667,34.5333,Blendana Hotel Assosa
1147,Huarmey,PE,69.1,scattered clouds,-10.0681,-78.1522,Hotel Miramar
1148,Farafangana,MG,67.87,light rain,-22.8167,47.8333,Miarina
1150,Anajatuba,BR,75.02,heavy intensity rain,-3.2644,-44.6197,Pousada Por do Sol
1151,Kibaya,TZ,61.54,scattered clouds,-5.3,36.5667,Lusaka Hotel
1153,Punta Alta,AR,89.6,clear sky,-38.8759,-62.0736,Center Hotel Punta Alta
1154,Benghazi,LY,70.72,clear sky,32.1167,20.0667,Tibesti Hotel
1156,Ippy,CF,70.95,light rain,6.2679,21.2247,
1158,Antsohihy,MG,77.83,broken clouds,-14.8796,47.9875,Hotel de Ville
1159,Abonnema,NG,78.35,moderate rain,4.7084,6.7931,Corper's Lodge Obonoma
1162,Ambovombe,MG,65.07,scattered clouds,-25.1667,46.0833,RELAHARA
1163,Port Macquarie,AU,72.9,few clouds,-31.4333,152.9167,Rydges Port Macquarie
1164,Ko Samui,TH,82.72,overcast clouds,9.5357,99.9357,The Passage
1165,Adelanto,US,84.56,clear sky,34.5828,-117.4092,Days Inn Adelanto-Victorville
1166,Maracai,BR,81.27,broken clouds,-22.6106,-50.6672,Hotel Pousada
1168,Nagua,DO,88.45,clear sky,19.3832,-69.8474,Hotel Cambri
1171,Tecpan,GT,70.56,overcast clouds,14.7623,-90.9947,San Ricardo Restaurante y Hotel
1172,Boma,GH,74.95,light rain,7.0805,-2.1697,Obaatanpa Hotel
1174,Tessalit,ML,84.45,broken clouds,20.1986,1.0114,
1175,Acandi,CO,81.16,overcast clouds,8.5063,-77.2778,Hotel Patio Bonito
1176,Andros Town,BS,78.76,overcast clouds,24.7,-77.7667,Hanks place
1179,Campanha,BR,67.06,overcast clouds,-21.8361,-45.4006,Hotel Cidade
1181,Iquique,CL,66.42,scattered clouds,-20.2208,-70.1431,Backpacker`s Hostel Iquique
1183,Cantapoy,PH,78.98,scattered clouds,9.4906,125.4364,Brgy Pili Mountain View
1185,Parrita,CR,88.99,overcast clouds,9.5201,-84.3225,Beso del Viento
1187,Raudeberg,NO,60.58,overcast clouds,61.9875,5.1352,Nordre Silda.
1188,Palma,ES,69.6,scattered clouds,39.5694,2.6502,Hotel Saratoga
1190,Moranbah,AU,76.98,scattered clouds,-22.0016,148.0466,Direct Hotels - Monterey Moranbah
1193,Una,IN,75.6,overcast clouds,20.8167,71.0333,Hotel Harbhole
1196,Yerraguntla,IN,75.27,overcast clouds,14.6372,78.5395,M Y R Lodge
1199,Xiamen,CN,73.26,overcast clouds,24.4798,118.0819,Xiamen Dongchen Hotel
1200,Manokwari,ID,78.75,overcast clouds,-0.8667,134.0833,Swiss Belhotel Manokwari
1201,Impfondo,CG,71.08,overcast clouds,1.6381,18.0667,Auberge La Place de Jules
1202,Kourou,GF,86.05,scattered clouds,5.1552,-52.6478,Lodge TAKINI4 Guesthouse KOUROU FGU
1203,Lumeje,AO,66.92,light rain,-11.55,20.7833,
1205,Mazamari,PE,86.88,broken clouds,-11.3258,-74.5308,Hospedaje Ratto
1210,Pangkalanbuun,ID,73.78,light rain,-2.6833,111.6167,Grand Kecubung Hotel
1213,Mtinko,TZ,70.39,overcast clouds,-4.55,34.85,
1215,Sagaing,MM,74.61,scattered clouds,21.8787,95.9797,Makara Cruise
1216,Liberty,US,69.91,broken clouds,31.8335,-81.5004,Sasser’s Mobile Home Park
1217,Letlhakane,BW,77.97,clear sky,-21.4167,25.5833,Motswedi Hotel P650
1218,Labuhan,ID,79.93,overcast clouds,-6.8844,112.2051,PT PPI Lamongan Tambak C
1223,Rudbar,AF,64.98,few clouds,30.15,62.6,
1225,Sumenep,ID,81.27,overcast clouds,-7.0167,113.8667,OYO 3271 Homestay Pandian
1229,Jerico,CO,67.91,overcast clouds,5.7921,-75.786,Las Cometas Hostel
1230,Ciudad Bolivar,VE,85.8,overcast clouds,8.1222,-63.5497,Hotel Edi
1232,Howard Springs,AU,82.31,scattered clouds,-12.497,131.047,buffalo beach hostel
1234,Nisia Floresta,BR,79.61,scattered clouds,-6.0911,-35.2086,Rancho Crepusculo
1235,Carutapera,BR,76.06,heavy intensity rain,-1.195,-46.02,Lidera
1237,Iquitos,PE,80.64,scattered clouds,-3.7481,-73.2472,Casa Morey Hotel & Restaurant
1239,Sembe,CG,70.34,overcast clouds,1.6481,14.5806,
1240,Virginia Beach,US,73.44,broken clouds,36.8529,-75.978,Hilton Virginia Beach Oceanfront
1241,Ngunguru,NZ,68.16,overcast clouds,-35.6167,174.5,Pacific Rendezvous Motel Resort
1242,Bucerias,MX,86.99,light rain,20.75,-105.3333,Royal Decameron Complex - Puerto Vallarta
1243,Rio Tercero,AR,83.48,overcast clouds,-32.173,-64.1141,"Hotel Vélez Sarsfield ""Low Cost"""
1246,Caramay,PH,79.5,light rain,10.1815,119.236,Peace and Love Beach Club
1250,Ugoofaaru,MV,81.7,light rain,5.6667,73.0,Ungoofaaru Inn
1254,Voi,KE,72.54,broken clouds,-3.3945,38.563,Voi Wildlife Lodge
1255,Tipuani,BO,84.72,overcast clouds,-15.5648,-68.0185,
1257,Mufumbwe,ZM,77.68,overcast clouds,-13.6833,24.8,
1258,Benjamin Aceval,PY,74.48,broken clouds,-24.9667,-57.5667,Escuela Agrícola y Hotel Cerrito
1259,Bozoum,CF,70.74,overcast clouds,6.3193,16.3799,
1260,Ruidoso,US,68.11,clear sky,33.3317,-105.673,Inn of the Mountain Gods
1262,Hingoli,IN,65.66,overcast clouds,19.7167,77.15,Hotel RW International
1263,Linares,CL,83.75,broken clouds,-35.85,-71.6,Hotel Real
1267,Sulangan,PH,82.22,overcast clouds,11.1373,123.7228,Maia's Beach Resort
1268,Mahon,ES,66.76,few clouds,39.8885,4.2658,ARTIEM Capri
1269,Charters Towers,AU,74.37,scattered clouds,-20.1,146.2667,Cattleman's Rest Motor Inn
1270,Mollendo,PE,66.99,scattered clouds,-17.0231,-72.0147,Hostal La Casa de Melgar
1271,Surt,LY,71.56,clear sky,31.2089,16.5887,الهادي ابوشعاله سرت
1273,Conceicao Da Barra,BR,73.72,scattered clouds,-18.5933,-39.7322,Cricaré Praia Hotel
1276,Lima,PE,68.4,few clouds,-12.0432,-77.0282,Gran Hotel Bolivar Lima
1278,Kalabo,ZM,75.85,broken clouds,-14.97,22.6814,Sikakubete Guest House Kalabo Town Council
1279,Gaoual,GN,75.49,light rain,11.75,-13.2,Hotel koliba
1281,Bahir Dar,ET,60.69,light rain,11.5936,37.3908,"Delano Hotel, Bahir Dar"
1288,Sakakah,SA,72.59,scattered clouds,29.9697,40.2064,Fakhamat Al Orjoana Apartment
1289,Sri Aman,MY,73.87,overcast clouds,1.2376,111.4621,Seri Simanggang Hotel
1291,Kapoeta,SS,83.16,broken clouds,4.7717,33.5903,Eastgate Hotel
1293,Portel,BR,82.8,broken clouds,-1.9356,-50.8211,Kitnet do Marcos
1294,Hervey Bay,AU,80.04,broken clouds,-25.2986,152.8535,Shelly Bay Resort
1295,Sokoni,TZ,79.12,clear sky,-6.4333,39.55,Ujamaa Beach Resort
1296,Virudunagar,IN,75.33,overcast clouds,9.6,77.9667,Pushpam Lodge
1297,Presidente Venceslau,BR,84.6,few clouds,-21.8761,-51.8439,K. Hotéis
1298,Bloemhof,ZA,63.45,few clouds,-27.6469,25.607,Victory Towers
1300,Lincoln,US,62.51,clear sky,40.8,-96.667,Courtyard by Marriott Lincoln Downtown/Haymarket
1303,Hansi,IN,68.59,clear sky,29.1,75.9667,Green Valley Lodge
1304,Mawlaik,MM,70.88,broken clouds,23.6333,94.4167,AKZ Guest House
1305,Waipawa,NZ,60.03,broken clouds,-41.4122,175.5153,Tora Coastal Walk
1306,Boende,CD,69.33,overcast clouds,-0.2167,20.8667,
1309,Pran Buri,TH,76.21,overcast clouds,12.3847,99.9098,Waterside Resort
1310,Guiratinga,BR,83.35,moderate rain,-16.3494,-53.7583,Hotel Angra do Cerrado - Guiratinga MT
1312,Dharmadam,IN,77.23,overcast clouds,11.7833,75.4333,Samudra Homes
1313,Barra Patuca,HN,84.56,overcast clouds,15.8,-84.2833,
1314,Tirur,IN,79.79,overcast clouds,10.9,75.9167,Sangamam Residency
1316,Domoni,KM,75.47,clear sky,-12.2569,44.5319,Al Djadid
1317,Sharqpur,PK,68.13,clear sky,31.4633,74.1,Salim's Dental Clinic..Dr.Awais
1318,Marrakesh,MA,68.07,clear sky,31.6315,-8.0083,Novotel Marrakech Hivernage
1319,Esna,EG,80.74,broken clouds,25.2934,32.554,Orient Star Dahabyia Isna 05 Nights Each Sunday
1321,Lufilufi,WS,81.79,overcast clouds,-13.8745,-171.5986,Leuaina Beach Resort and Spa
1322,Beloha,MG,63.27,clear sky,-25.1667,45.05,
1323,Sailana,IN,64.13,broken clouds,23.4667,74.9167,Krishna Marriage Garden Sailana
1326,Ibra,OM,73.98,clear sky,22.6906,58.5334,مزرعة راحة النفوس المنزفة
1327,Gizo,SB,83.95,light rain,-8.103,156.8419,Imagination Island
1328,Sarandi,BR,77.25,overcast clouds,-23.4436,-51.8739,HOTEL GRALHA AZUL (GAPH) - Maringá
1329,Chanika,TZ,69.39,overcast clouds,-5.4167,38.0167,New Rombo Green Hotel
1330,Ouesso,CG,70.41,overcast clouds,1.6136,16.0517,ABENIE Hotel
1331,Acari,PE,75.61,overcast clouds,-15.4311,-74.6158,HOSPEDAJE XIMENA
1334,Ewa Beach,US,85.01,broken clouds,21.3156,-158.0072,Uncle Junior Robert
1335,Puerto Madryn,AR,73.51,broken clouds,-42.7692,-65.0385,Hotel Tolosa
1336,Coffs Harbour,AU,75.16,clear sky,-30.3,153.1333,Aquajet Motel
1337,Suez,EG,71.26,overcast clouds,29.9737,32.5263,Green House
1340,Sarai Naurang,PK,70.74,clear sky,32.8259,70.7814,Taj Mahal hotel
1341,Bud,US,61.68,overcast clouds,39.447,-86.1758,Ted McQuinn Trust
1342,Grand-Santi,GF,82.33,broken clouds,4.25,-54.3833,Hotel La Villa Couacou
1345,Odienne,CI,77.09,broken clouds,9.51,-7.5692,Oustaz Vame DIAKITE
1346,Yorosso,ML,82.38,broken clouds,12.3536,-4.7761,Maison d'arrêt et de correction de Yoro
1348,Maningrida,AU,78.17,overcast clouds,-12.0667,134.2667,Dhukurrdji Lodge
1349,Biltine,TD,81.82,clear sky,14.5333,20.9167,Hôtel Trois Étoiles de Biltine
1350,Alanya,TR,60.93,clear sky,36.5438,31.9998,Panorama Hotel
1352,Altamira,BR,84.63,overcast clouds,-3.2033,-52.2064,Requinte Hotel
1355,Wilmington,US,70.0,few clouds,34.2257,-77.9447,"Hotel Ballast Wilmington, Tapestry Collection by Hilton"
1357,Dourbali,TD,86.56,scattered clouds,11.8091,15.8632,
1358,Ladario,BR,84.49,broken clouds,-19.0047,-57.6017,Hotel Fazenda 4 cantos
1359,Kawalu,ID,72.36,overcast clouds,-7.3817,108.2082,KOSAN UNGU UNSIK
1360,Delmiro Gouveia,BR,80.15,overcast clouds,-9.3886,-37.9992,Hotel Nossa Senhora do Rosário
1361,San Diego De Los Banos,CU,81.32,overcast clouds,22.6467,-83.3697,Casa Nalúa - Nalúa Enea
1362,Kijang,KR,60.03,overcast clouds,35.2442,129.2139,Samyang Beach Villa
1363,Hirara,JP,75.78,few clouds,24.8,125.2833,Hotel Atoll Emerald Miyakojima
1364,Niteroi,BR,71.26,overcast clouds,-22.8833,-43.1036,Guesthouse
1367,Tshikapa,CD,70.25,overcast clouds,-6.4167,20.8,Hôtel Tshia-Muntu de Tshikapa
1370,Cairns,AU,77.07,scattered clouds,-16.9167,145.7667,Mantra Trilogy Cairns
1371,Tezu,IN,65.73,clear sky,27.9167,96.1667,Circuit House
1372,Raton,US,68.58,clear sky,36.9034,-104.4391,"Holiday Inn Express & Suites Raton, an IHG Hotel"
1377,Maldonado,UY,76.39,clear sky,-34.6667,-54.9167,La Cimarrona
1378,Kearney,US,61.57,clear sky,40.6995,-99.0815,"Holiday Inn Kearney, an IHG Hotel"
1379,Caxito,AO,77.0,overcast clouds,-8.5785,13.6643,
1382,Teluk Nibung,ID,76.77,broken clouds,3.001,99.8164,Hotel Assyifa
1383,Utinga,BR,79.65,scattered clouds,-5.8172,-35.3954,Espaço de Lazer Érica Fernandes
1385,Tingi,TZ,66.67,overcast clouds,-11.3,35.0333,
1386,Totness,SR,80.83,broken clouds,5.8833,-56.3167,STAATS LOGEERGEBOUW TOTNESS
1388,Caraz,PE,68.4,light rain,-9.0486,-77.81,Hostal La Alameda
1389,Wenzhou,CN,63.1,light rain,27.9994,120.6668,温州喜来登酒店
1391,Shahganj,IN,66.94,clear sky,26.05,82.6833,Sher-E-Panjab family restaurant and Dhaba
1392,Penalva,BR,78.1,overcast clouds,-3.2942,-45.1736,Hotel São José
1396,Kantunilkin,MX,82.24,overcast clouds,21.0917,-87.45,Posada Paraiso
1397,Pattani,TH,78.51,broken clouds,6.75,100.4167,Tobias Kleeberg
1398,Pakxan,LA,69.78,scattered clouds,18.3778,103.6601,Kong Kham Pheng Guesthouse
1399,Fundao,BR,76.53,overcast clouds,-19.9341,-40.4047,City Hotel
1402,Pacific Grove,US,83.57,clear sky,36.6177,-121.9166,Lovers Point Inn
1403,Ocampo,MX,74.28,clear sky,21.65,-101.5,Casa de ratas
1404,Porirua,NZ,62.42,broken clouds,-41.1333,174.85,Amethyst Court Motor lodge (Best Price on direct bookings)
1405,Ahuimanu,US,84.78,broken clouds,21.4447,-157.8378,Paradise Bay Resort
1406,Nortelandia,BR,81.19,moderate rain,-14.4547,-56.8028,Hotel Karysmã
1410,Tocopilla,CL,67.95,scattered clouds,-22.092,-70.1979,Hotel Galvarino
1412,Ghorawal,IN,63.86,few clouds,24.7667,82.7833,Abbas Ujjwal Tent House
1414,Yilan,TW,73.51,scattered clouds,24.757,121.753,Dar Chen Hotel
1417,Otane,NZ,62.38,clear sky,-39.8833,176.6333,Ludlow Farmstay
1418,Roald,NO,61.72,clear sky,62.5833,6.1333,Flem Cabins
1419,Altamont,US,65.79,haze,42.2068,-121.7372,Microtel Inn & Suites by Wyndham Klamath Falls
1420,Itupiranga,BR,79.12,overcast clouds,-5.1347,-49.3267,Hotel Panorama
1421,Cristalina,BR,75.56,overcast clouds,-16.7686,-47.6136,HOTEL TOPAZIO
1422,Palotina,BR,83.48,broken clouds,-24.2839,-53.84,Hotel Granfino
1423,Abu Samrah,SY,66.11,overcast clouds,35.3029,37.1841,
1424,Cacheu,GW,80.38,overcast clouds,12.2706,-16.1658,
1426,Mareeba,AU,72.45,broken clouds,-17.0,145.4333,Trinity Plains Tourist Park
1427,Pleasanton,US,80.26,clear sky,37.6624,-121.8747,Four Points by Sheraton Pleasanton
1436,Kantilo,IN,78.66,overcast clouds,20.35,85.1833,Hostel Building at Kantilo Nilamadhaba Mahavidyalaya
1437,Camocim,BR,80.94,scattered clouds,-2.9022,-40.8411,Hotel Ilha do Amor
1439,Mananara,MG,71.89,overcast clouds,-16.1667,49.7667,Chez Roger
1440,Labe,GN,67.87,overcast clouds,11.3182,-12.2833,Hôtel Djamtum
1441,Kingman,US,79.05,clear sky,35.1894,-114.053,Rodeway Inn Kingman Route 66
1444,Manoharpur,IN,63.55,clear sky,27.3,75.95,कैथल हरियाणा होटल
1445,Rosarito,MX,89.4,clear sky,32.3333,-117.0333,Hotel Festival Plaza Rosarito
1447,Kamwenge,UG,62.06,light rain,0.1866,30.4539,Marianna Guest House
1448,Carauari,BR,83.07,overcast clouds,-4.8828,-66.8958,Hotel Fellip
1450,Moree,AU,66.22,overcast clouds,-29.4667,149.85,Molika Springs Motel
1451,Maragogi,BR,78.84,overcast clouds,-9.0122,-35.2225,Salinas do Maragogi All Inclusive Resort
1453,Jambi,ID,73.98,overcast clouds,-1.6,103.6167,ASTON Jambi Hotel & Conference Center
1454,San Javier,ES,67.68,clear sky,37.8063,-0.8374,Hotel Mar Menor
1457,Pandan,PH,80.58,few clouds,14.0453,124.1694,Bonifacio Lodge
1458,Vaitape,PF,78.71,overcast clouds,-16.5167,-151.75,Conrad Bora Bora Nui
1459,Kasangulu,CD,71.06,overcast clouds,-4.5911,15.1708,Hôtel le Relais
1460,Kingsland,US,70.95,overcast clouds,30.8,-81.6898,Microtel Inn & Suites by Wyndham Kingsland
1461,Pio Ix,BR,87.1,broken clouds,-6.8375,-40.5792,Hotel Central
1462,Elko,US,67.75,few clouds,41.0002,-115.5012,
1465,Barreirinhas,BR,80.85,overcast clouds,-2.7469,-42.8264,Gran Lençóis Flat Residence
1466,Kouroussa,GN,72.7,moderate rain,10.65,-9.8833,Hotel Paillote
1470,Minab,IR,71.1,clear sky,27.1467,57.0801,Bam campground
1473,Kouango,CF,71.44,light rain,4.9934,19.9619,
1475,Biloela,AU,74.91,scattered clouds,-24.4167,150.5,Biloela Silo Motor Inn
1476,Tanout,NE,85.28,broken clouds,14.9709,8.8879,
1480,Billings,US,71.92,broken clouds,45.7833,-108.5007,Best Western Plus Clocktower Inn
1482,Belur,IN,66.33,overcast clouds,13.1667,75.8667,Sri Soumya Keshava Convention Hall And Lodge
1483,San Jose,US,81.59,scattered clouds,37.3394,-121.895,The Westin San Jose
1484,Tonj,SS,75.96,broken clouds,7.2737,28.6822,Lakan Hotel
1487,Solwezi,ZM,67.75,scattered clouds,-12.1688,26.3894,Country Lodge Solwezi
1488,Abu Zabad,SD,83.05,scattered clouds,12.35,29.25,حامد محمد نور
1489,Illapel,CL,76.73,clear sky,-31.6308,-71.1653,Hotel Londres
1490,Port Keats,AU,82.4,broken clouds,-14.25,129.55,TDC Village (Hundred Man Camp)
1492,Nalut,LY,67.33,clear sky,30.3333,10.85,
1493,Ruangwa,TZ,70.92,scattered clouds,-10.0667,38.9333,Pivava lodge
1496,San Rafael Del Sur,NI,82.81,broken clouds,11.8485,-86.4384,Hospedaje El Chino
1498,Gympie,AU,78.31,broken clouds,-26.1898,152.665,Mary River Motor Inn
1502,Sibiti,CG,67.39,overcast clouds,-3.6819,13.3499,"LE PAPYRUS (hôtel, bar et restaurant)"
1503,Tigbao,PH,80.35,light rain,12.5546,123.3389,
1504,Ternate,ID,80.73,overcast clouds,0.8,127.4,Sahid Bela Ternate Hotel
1505,Phuket,TH,86.09,few clouds,8.0,98.25,The Surin
1509,Rampura,IN,65.8,clear sky,30.25,75.2333,Akash
1510,Cepu,ID,78.42,overcast clouds,-7.1475,111.5906,OYO 673 Hotel Cepu Indah 1
1511,Matay,EG,75.92,few clouds,28.419,30.7792,Nag Aespen
1514,San Vicente,AR,63.12,light rain,-26.6167,-54.1333,Complejo Turístico Farelluk
1516,Villa Carlos Paz,AR,86.9,overcast clouds,-31.4241,-64.4978,Monte Carlo
1517,Nong Ki,TH,71.83,light rain,14.6868,102.538,บ้านเพ็ชรจำปา
1518,Paracuru,BR,82.42,broken clouds,-3.41,-39.0306,Hotel Vento Brasil
1520,Coahuayana,MX,89.08,broken clouds,18.7333,-103.6833,El rranchito michuacan de ocampos
1521,Beitbridge,ZW,76.84,clear sky,-22.2167,30.0,Beitbridge Express Hotel
1522,Kendari,ID,75.15,broken clouds,-3.945,122.4989,Hotel Wixel
1523,Beni Suef,EG,73.99,broken clouds,29.0731,31.0979,Jewel Inn Beni Suef
1524,Le Port,RE,69.8,broken clouds,-20.9373,55.2919,KORBEY D'OR OUEST
1525,Stellenbosch,ZA,63.79,scattered clouds,-33.9346,18.8668,Summerwood Guest House
1529,Challapata,BO,60.6,few clouds,-18.9,-66.7667,HOSTAL MARIAN
1530,Pecos,US,74.23,clear sky,31.4229,-103.4932,Knights Inn & Suites Pecos
1531,Safford,US,82.06,clear sky,32.834,-109.7076,SpringHill Suites by Marriott Thatcher
1534,Sao Jose Da Coroa Grande,BR,78.55,overcast clouds,-8.8978,-35.1478,Crôa Mares Hotel
1535,Loikaw,MM,65.7,scattered clouds,19.6742,97.2094,Myat Nan Taw Hotel
1536,General Higinio Morinigo,PY,73.22,light rain,-25.95,-55.9167,
1537,Kokopo,PG,79.32,scattered clouds,-4.352,152.2633,Kokopo Beach Bungalow Resort
1538,Tacuati,PY,75.29,broken clouds,-23.45,-56.5833,
1539,Tatawin,TN,67.03,broken clouds,32.9297,10.4518,Sangho Privilege Tataouine
1540,Kisesa,TZ,76.98,overcast clouds,-3.0833,34.15,
1541,Bousso,TD,82.22,broken clouds,10.4795,16.7117,
1543,Beatrice,US,63.18,clear sky,40.2681,-96.747,Victorian Inn Beatrice
1546,Majene,ID,77.45,overcast clouds,-3.5403,118.9707,Kost Putri RABBANI
1547,Neftcala,AZ,60.26,overcast clouds,39.3742,49.2472,Otel restoran
1550,Bauchi,NG,76.62,scattered clouds,10.5,10.0,
1551,Emiliano Zapata,MX,84.88,scattered clouds,18.8333,-99.1833,Parador De Manolos Hotel
1552,Santa Rosalia,MX,80.69,clear sky,27.3167,-112.2833,Hotel Las Casitas Santa Rosalia
1554,Carinhanha,BR,87.21,broken clouds,-14.3047,-43.765,Hotel União
1555,Sarangani,PH,83.84,scattered clouds,5.4033,125.4636,Ballistic Islet
1557,Kalamare,BW,75.94,broken clouds,-22.9337,26.5703,
1559,Curvelo,BR,81.48,overcast clouds,-18.7564,-44.4308,Pontal Plaza Hotel
1561,Arenal,CO,77.56,overcast clouds,8.4593,-73.9433,Hotel Azteca
1562,Norsup,VU,81.59,scattered clouds,-16.0667,167.3833,Nabelchel Bungalows
1563,Tomatlan,MX,87.37,scattered clouds,19.9333,-105.25,El Salvial
1564,Abai,PY,76.62,broken clouds,-26.0333,-55.9333,Hostal Mi Abuela 🏘
1565,Kudat,MY,78.26,scattered clouds,6.8837,116.8477,Dream Garden Hotel
1566,Oum Hadjer,TD,85.12,clear sky,13.2954,19.6966,
1569,Zaida,PK,63.46,clear sky,34.0603,72.4678,Zalmi Biryani and Pulao
1571,Purwodadi,ID,77.34,overcast clouds,-7.0868,110.9158,OYO 1620 Sion Family Residence
1572,Lumphat,KH,71.17,overcast clouds,13.4878,106.9816,Lumphat Homestay
1573,Golden,US,76.1,clear sky,39.7555,-105.2211,"The Golden Hotel, Ascend Hotel Collection"
1575,Bhatkal,IN,78.49,overcast clouds,13.9667,74.5667,Nilawar Palace
1577,Santo Augusto,BR,65.68,light rain,-27.8508,-53.7772,Hotel Marco Polo
1578,Salta,AR,81.9,scattered clouds,-24.7859,-65.4117,Hotel Alejandro I
1580,Cumana,VE,81.0,overcast clouds,10.4635,-64.1775,Posada Acuarela Los Roques
1584,Fasa,IR,64.15,overcast clouds,28.9383,53.6482,Fasa University Boys' Dormitory
1585,Lianzhou,CN,62.82,overcast clouds,24.7811,112.3825,Qingcheng Tourism Industry
1586,Ukiah,US,79.12,clear sky,39.1502,-123.2078,Hampton Inn Ukiah
1587,Mugango,TZ,72.64,broken clouds,-1.6833,33.7,
1591,Finschhafen,PG,81.9,overcast clouds,-6.6024,147.8681,Cossam Guest House
1593,Edgemere,US,62.01,overcast clouds,39.2421,-76.448,Penwood Mobile Home Park
1596,San Lawrenz,MT,63.86,overcast clouds,36.0553,14.204,San Andrea Hotel
1597,Porto Belo,BR,71.96,moderate rain,-27.1578,-48.5531,Costa Verde Beach Hotel
1598,Charlestown,AU,68.83,clear sky,-32.95,151.6667,Panorama Motor Inn Hotel
1599,Gouyave,GD,83.17,few clouds,12.1646,-61.7296,Rumboat Retreat
1600,Santa Luzia,BR,76.1,overcast clouds,-19.7697,-43.8514,Pousada Chao Earth
1601,Guantanamo,CU,85.57,broken clouds,20.1444,-75.2092,Hotel Guantánamo
1602,Komatipoort,ZA,68.05,clear sky,-25.4332,31.9548,Kruger View Backpackers
1605,Ovalle,CL,78.28,clear sky,-30.5983,-71.2003,Hotel Altos de Tuqui
1606,Amapa,BR,77.88,overcast clouds,1.0,-52.0,
1608,Houma,US,64.99,broken clouds,29.5958,-90.7195,Courtyard by Marriott Houma
1610,Bajil,YE,84.47,clear sky,15.0584,43.2851,فندق حضرموت
1613,Puerto Suarez,BO,84.76,broken clouds,-18.95,-57.8,Hotel casa real
1615,Scottsbluff,US,72.79,clear sky,41.8666,-103.6672,Hampton Inn & Suites Scottsbluff-Conference Center
1616,Samana,DO,82.98,clear sky,19.2056,-69.3369,The Bannister - Hotel & Yacht Club
1617,Nador,MA,62.85,clear sky,35.174,-2.9287,Hôtel La Giralda
1618,La Rinconada,ES,68.43,broken clouds,37.4873,-5.9826,Hotel Torre del Oro
1619,Alugan,PH,79.86,scattered clouds,12.2188,125.4808,JM Lodge
1620,Uvinza,TZ,71.33,scattered clouds,-5.1036,30.3911,Crown Lodge
1622,Gastonia,US,61.3,overcast clouds,35.2621,-81.1873,"Holiday Inn Express Charlotte West - Gastonia, an IHG Hotel"
1626,Marsabit,KE,71.22,clear sky,2.3284,37.9899,Chicho Hotel
1632,Awjilah,LY,71.15,scattered clouds,29.1081,21.2869,
1633,Llanes,ES,66.87,moderate rain,43.4198,-4.7549,Hotel La Paz
1636,Alicia,PH,71.26,broken clouds,16.7794,121.6973,Miguel’ Residences
1637,Ambanja,MG,76.03,broken clouds,-13.6833,48.45,Hotel Salama and Fast Food
1639,San Roque,ES,64.78,overcast clouds,36.2107,-5.3842,Hotel Guadacorte Park
1641,Santa Rita,BR,75.87,broken clouds,-7.1139,-34.9781,Infinity Motel
1642,Fountain,US,76.23,clear sky,38.6822,-104.7008,Colorado Springs KOA Holiday
1645,Baton Rouge,US,62.94,overcast clouds,30.4508,-91.1545,Hilton Baton Rouge Capitol Center
1647,Amparafaravola,MG,63.46,overcast clouds,-17.5833,48.2167,Aina Franco
1654,Progreso,MX,84.11,overcast clouds,21.2833,-89.6667,Playa Linda Hotel
1655,Abu Dhabi,AE,82.42,clear sky,24.4667,54.3667,Ramee Garden Hotel Apartments
1656,Acarau,BR,80.4,scattered clouds,-2.8856,-40.12,castelo pizzaria
1663,Turmalina,BR,75.76,broken clouds,-17.2856,-42.73,Hotel Cristal
1667,Batticaloa,LK,79.65,broken clouds,7.7102,81.6924,Grand Star Guest House
1668,Morgan City,US,64.99,broken clouds,29.6994,-91.2068,Hampton Inn & Suites Morgan City
1670,Snyder,US,76.51,clear sky,32.7179,-100.9176,"Holiday Inn Express & Suites Snyder, an IHG Hotel"
1671,Limon,CR,85.89,clear sky,10.0,-83.0333,Hotel Playa Bonita
1673,Pontes E Lacerda,BR,73.13,heavy intensity rain,-15.2261,-59.3353,Hotel Bressan
1674,Monrovia,LR,74.97,moderate rain,6.3005,-10.7969,Sunset Inn
1675,Unjha,IN,71.53,overcast clouds,23.8,72.4,Umiya Mataji Guest House
1678,Kambove,CD,71.82,overcast clouds,-10.8764,26.5969,Couvant des soeurs catholiques
1679,Passos,BR,71.65,broken clouds,-20.7189,-46.6097,Hostel da Moda
1681,Gualaceo,EC,61.93,light rain,-2.9,-78.7833,Arhaná Hosteria Resort
1682,Sampit,ID,73.49,overcast clouds,-2.5333,112.95,Aquarius Boutique Hotel Sampit
1683,Beroroha,MG,70.59,clear sky,-21.6667,45.1667,
1685,Santa Ines,BR,79.66,overcast clouds,-3.6667,-45.38,Palace hotel
1686,Lemon Tree Passage,AU,68.92,clear sky,-32.7327,152.036,Koala Shores Port Stephens Holiday Park
1691,Lastoursville,GA,72.66,overcast clouds,-0.8143,12.7287,Auberge Bon Coin 02
1692,Pundaguitan,PH,82.0,scattered clouds,6.3711,126.1689,Leonardo Family Beach House 1
1693,Chaozhou,CN,69.89,overcast clouds,23.6651,116.6379,Seven Corner View Homestay
1695,Olinda,BR,80.33,broken clouds,-8.0089,-34.8553,Hotel Albergue de Olinda
1696,Puro,PH,79.86,moderate rain,12.4841,123.3827,
1697,Sharjah,AE,80.58,clear sky,25.3573,55.4033,Swiss Belhotel Sharjah
1698,Crestview,US,65.48,overcast clouds,30.7621,-86.5705,"Holiday Inn Express & Suites Crestview South I-10, an IHG Hotel"
1700,Valle Del Guamuez,CO,83.62,overcast clouds,0.4525,-76.9192,Hotel Casa Blanca Orito
1701,Atar,MR,80.65,overcast clouds,20.5169,-13.0499,Oumou Elghoura
1703,Massaguet,TD,87.12,broken clouds,12.4755,15.4365,Alwatane
1704,Dulce Nombre De Culmi,HN,79.66,broken clouds,15.1,-85.5333,Hotel Posada Real
1706,Conde,BR,74.66,broken clouds,-7.2597,-34.9075,Pousada Beija Flor
1707,Banda Aceh,ID,74.68,overcast clouds,5.5577,95.3222,Sulthan Hotel International
1709,Ayapa,MX,84.24,broken clouds,18.1833,-93.1667,Quinta Fleites
1710,Gangarampur,IN,68.11,few clouds,25.4,88.5167,Parijat Lodge
1713,Santa Clara,CU,83.86,broken clouds,22.4,-79.9667,El Carmen
1716,Gatton,AU,75.34,overcast clouds,-27.55,152.2833,Room Motels Gatton
1718,Palu,ID,75.51,overcast clouds,-0.8917,119.8707,Hotel Santika Palu
1719,Yenagoa,NG,77.32,light rain,4.9247,6.2642,Aridolf Resort Wellness and Spa
1722,Mandan,US,71.04,clear sky,46.8267,-100.8896,Twin City Estates
1723,Saint-Paul,RE,69.91,broken clouds,-21.0096,55.2707,Boucan Canot
1724,Kankon,IN,79.56,overcast clouds,15.0167,74.0167,Palolem Beach Resort
1726,Najran,SA,63.01,clear sky,17.4924,44.1277,محمد هادي ال فطيح
1732,Tena,EC,83.16,moderate rain,-0.9833,-77.8167,Hostal Tena Ñaui
1734,Almansa,ES,62.89,overcast clouds,38.8692,-1.0971,Hotel Blu
1736,Kismayo,SO,79.41,broken clouds,-0.3582,42.5454,Agan-Hotel
1737,Porto Empedocle,IT,62.73,overcast clouds,37.2934,13.5264,Hotel dei Pini
1738,Langsa,ID,75.15,moderate rain,4.4683,97.9683,OYO 2964 Hotel Ridho
1740,Bonthe,SL,78.96,light rain,7.5264,-12.505,Bonthe Holiday Village
1742,Tandil,AR,77.7,few clouds,-37.3217,-59.1332,HOSTAL DE LA SIERRA TANDIL
1743,Joao Camara,BR,78.04,scattered clouds,-5.5375,-35.8197,Pousada Miguel Teixeira
1746,Kintampo,GH,78.6,overcast clouds,8.0563,-1.7306,Adomaa Memorial Hotel
1747,Arona,ES,66.7,scattered clouds,28.0996,-16.681,Paradise Court
1749,Stillwater,US,68.27,clear sky,36.1156,-97.0584,Hampton Inn & Suites Stillwater
1754,Cagsiay,PH,82.22,scattered clouds,14.2167,121.75,"Sitio Maligaya, Barangay Cagsiay I"
1757,Macas,EC,78.55,light rain,-2.3167,-78.1167,Casa Upano
1760,Lazaro Cardenas,MX,84.49,clear sky,17.9583,-102.2,quinta antigua
1761,Radcliff,US,64.81,few clouds,37.8404,-85.9491,Super 8 by Wyndham Radcliff Ft. Knox Area
1764,Mwaya,TZ,75.36,broken clouds,-9.55,33.95,
1765,Llaillay,CL,85.32,clear sky,-32.85,-70.9667,HOSTAL EDWARDS 454
1767,Diffa,NE,85.62,few clouds,13.3154,12.6113,ProDAF/Diffa
1768,Suluq,LY,68.14,clear sky,31.6682,20.2521,منزل عبدالواحد خليفة الفاخري
1770,Ler,SS,74.43,overcast clouds,8.3018,30.1418,
1774,Benguela,AO,76.14,overcast clouds,-12.5763,13.4055,Hotel Praia Morena
1775,Bundaberg,AU,80.22,scattered clouds,-24.85,152.35,Takalvan Motel
1776,Leon,MX,80.15,clear sky,21.1167,-101.6667,ENTERPRISE INN POLIFORUM
1777,Ojinaga,MX,81.41,clear sky,29.5667,-104.4167,Suites Las Palmas
1780,Akyab,MM,78.57,few clouds,20.15,92.9,Hotel Memory
1781,Jiwani,PK,79.41,clear sky,25.05,61.7417,Al Mumtaz Transport Jiwani
1782,Koroni,GR,63.07,overcast clouds,36.8,21.95,Apartments Xenios Zeus 1
1783,Mlonggo,ID,77.52,overcast clouds,-6.5333,110.7,Asia Metal Art
1788,Paciran,ID,79.84,overcast clouds,-6.8767,112.3761,Tanjung Kodok Beach Resort
1789,Lydenburg,ZA,66.4,broken clouds,-25.0978,30.4597,The Palms Boutique Hotel
1791,Moussoro,TD,87.76,clear sky,13.6408,16.4901,Hôtel Salama
1792,Itapipoca,BR,80.33,overcast clouds,-3.4944,-39.5786,Hotel Pilotos
1793,Am Timan,TD,79.65,overcast clouds,11.0297,20.2827,Palais du chef Canton Salamt
1794,San Pedro De Macoris,DO,86.38,clear sky,18.4616,-69.2972,Apartahotel Guaraguao
1795,Tahta,EG,78.24,overcast clouds,26.7693,31.5021,مصطفي عساف
1796,Mangaratiba,BR,70.07,broken clouds,-22.9597,-44.0406,Portobello Resort & Safari
1798,Grenada,ES,64.11,few clouds,37.1882,-3.6067,HOTEL REINA CRISTINA
1800,Tete,MZ,73.71,clear sky,-16.1564,33.5867,Zambeze Paraíso Misterioso
1801,Fare,PF,78.1,overcast clouds,-16.7,-151.0167,Maitai Lapita Village Huahine
1802,Itapecerica,BR,71.2,overcast clouds,-20.4725,-45.1256,Paraíso da Zé
1803,Puerto Madero,MX,88.0,scattered clouds,14.7208,-92.4215,Hospedaje madero
1804,Qalyub,EG,76.75,overcast clouds,30.1792,31.2056,كمال فهمى محمد فهمى
1805,Presidente Epitacio,BR,86.47,few clouds,-21.7633,-52.1156,Hotel Itaverá
1806,Bhainsa,IN,68.58,clear sky,26.9548,76.9012,Satto pawta
1808,Pokaran,IN,76.35,clear sky,26.9167,71.9167,Motel Pokaran - RTDC
1809,La Romana,DO,82.54,clear sky,18.4273,-68.9728,Casa de Campo Resort and Villas
1811,Roebourne,AU,70.84,clear sky,-20.7833,117.1333,Latitude20 Roebourne Village
1815,Juruti,BR,88.38,overcast clouds,-2.1522,-56.0922,Hotel Acauã - ORLA
